categories,name,rating,review_count,location,coordinates,city
['LAN Centers'],NXT LVL Gaming,5.0,9,"{'address1': '10772 SW 24th St', 'address2': None, 'address3': '', 'city': 'Miami', 'zip_code': '33165', 'country': 'US', 'state': 'FL', 'display_address': ['10772 SW 24th St', 'Miami, FL 33165']}","{'latitude': 25.7460073, 'longitude': -80.3690132}",Miami
['Festivals'],Hermanos Mora Arriaga - Mexican Show Band Miami - Mariachis Miam,5.0,15,"{'address1': '', 'address2': '', 'address3': '', 'city': 'Miami', 'zip_code': '33165', 'country': 'US', 'state': 'FL', 'display_address': ['Miami, FL 33165']}","{'latitude': 25.73054, 'longitude': -80.35323}",Miami
"['Performing Arts', 'Business Consulting', 'Specialty Schools']",Dave Aizer Public Speaking and Media Coach,5.0,5,"{'address1': '', 'address2': None, 'address3': '', 'city': 'Fort Lauderdale', 'zip_code': '33304', 'country': 'US', 'state': 'FL', 'display_address': ['Fort Lauderdale, FL 33304']}","{'latitude': 26.1364994049072, 'longitude': -80.1251068115234}",Miami
"['Paint & Sip', 'Party & Event Planning', 'Venues & Event Spaces']",Creative Cove,5.0,10,"{'address1': '6998 SW 47th St', 'address2': '', 'address3': '', 'city': 'Miami', 'zip_code': '33155', 'country': 'US', 'state': 'FL', 'display_address': ['6998 SW 47th St', 'Miami, FL 33155']}","{'latitude': 25.7261501801314, 'longitude': -80.3081335198582}",Miami
"['Arts & Crafts', 'Paint & Sip', 'Summer Camps']",Pinspiration - Davie,5.0,18,"{'address1': '8826 W State Rd 84', 'address2': None, 'address3': None, 'city': 'Davie', 'zip_code': '33324', 'country': 'US', 'state': 'FL', 'display_address': ['8826 W State Rd 84', 'Davie, FL 33324']}","{'latitude': 26.10108484906306, 'longitude': -80.26660566873764}",Miami
"['Life Coach', 'Psychics', 'Astrologers']",Psychic Life Coaching Consultants,5.0,5,"{'address1': '5611 Sheridan St', 'address2': '', 'address3': '', 'city': 'Hollywood', 'zip_code': '33021', 'country': 'US', 'state': 'FL', 'display_address': ['5611 Sheridan St', 'Hollywood, FL 33021']}","{'latitude': 26.03257, 'longitude': -80.20094}",Miami
"['Dance Studios', 'Performing Arts']",Florida Dancesport,5.0,14,"{'address1': '3129 W Hallandale Beach Blvd', 'address2': None, 'address3': '', 'city': 'Hallandale Beach', 'zip_code': '33009', 'country': 'US', 'state': 'FL', 'display_address': ['3129 W Hallandale Beach Blvd', 'Hallandale Beach, FL 33009']}","{'latitude': 25.986581966252057, 'longitude': -80.16843665523389}",Miami
"['Psychics', 'Psychic Mediums']",Psychic Medium Emary,5.0,5,"{'address1': None, 'address2': None, 'address3': '', 'city': 'Miami', 'zip_code': '33184', 'country': 'US', 'state': 'FL', 'display_address': ['Miami, FL 33184']}","{'latitude': 25.756402, 'longitude': -80.402048}",Miami
['Performing Arts'],Teatro 8,5.0,5,"{'address1': '2173 SW 8th St', 'address2': '', 'address3': '', 'city': 'Miami', 'zip_code': '33135', 'country': 'US', 'state': 'FL', 'display_address': ['2173 SW 8th St', 'Miami, FL 33135']}","{'latitude': 25.7656596, 'longitude': -80.2303077}",Miami
"['Paint & Sip', 'Home Decor', 'Arts & Crafts']",Nailed It DIY Studio,5.0,11,"{'address1': '9224 SW 156th St', 'address2': None, 'address3': '', 'city': 'Palmetto Bay', 'zip_code': '33157', 'country': 'US', 'state': 'FL', 'display_address': ['9224 SW 156th St', 'Palmetto Bay, FL 33157']}","{'latitude': 25.6252996, 'longitude': -80.3421449}",Miami
"['Museums', 'Venues & Event Spaces']",The Social Hub Miami,5.0,27,"{'address1': '701 S Miami Ave', 'address2': 'Ste 367', 'address3': '', 'city': 'Miami', 'zip_code': '33130', 'country': 'US', 'state': 'FL', 'display_address': ['701 S Miami Ave', 'Ste 367', 'Miami, FL 33130']}","{'latitude': 25.767044, 'longitude': -80.192742}",Miami
"['Life Coach', 'Reiki', 'Psychic Mediums']",The Witch's Garden,5.0,7,"{'address1': None, 'address2': None, 'address3': '', 'city': 'Miami', 'zip_code': '33013', 'country': 'US', 'state': 'FL', 'display_address': ['Miami, FL 33013']}","{'latitude': 25.84991, 'longitude': -80.27295}",Miami
"['Art Classes', 'Art Galleries', 'Paint-Your-Own Pottery']",Gumbo Limbo Pottery,5.0,15,"{'address1': '14291 SW 120th St', 'address2': 'Unit 101', 'address3': '', 'city': 'Miami', 'zip_code': '33186', 'country': 'US', 'state': 'FL', 'display_address': ['14291 SW 120th St', 'Unit 101', 'Miami, FL 33186']}","{'latitude': 25.657388603437692, 'longitude': -80.4262198140911}",Miami
"['Beer, Wine & Spirits', 'Toy Stores', 'Wine Tasting Room']",Primo Liquors Fine Wine and Cigars,5.0,106,"{'address1': '700 S Federal Hwy', 'address2': None, 'address3': '', 'city': 'Fort Lauderdale', 'zip_code': '33316', 'country': 'US', 'state': 'FL', 'display_address': ['700 S Federal Hwy', 'Fort Lauderdale, FL 33316']}","{'latitude': 26.1128767, 'longitude': -80.1367855}",Miami
"['Food Court', 'Bars', 'Music Venues']",Julia & Henry's,5.0,9,"{'address1': '200 E Flagler St', 'address2': None, 'address3': '', 'city': 'Miami', 'zip_code': '33131', 'country': 'US', 'state': 'FL', 'display_address': ['200 E Flagler St', 'Miami, FL 33131']}","{'latitude': 25.77413194845079, 'longitude': -80.18988519999999}",Miami
"['Arts & Crafts', 'Paint & Sip', 'Home Decor']",Paint The Grain Studio,5.0,29,"{'address1': '5527 S University Dr', 'address2': None, 'address3': None, 'city': 'Davie', 'zip_code': '33328', 'country': 'US', 'state': 'FL', 'display_address': ['5527 S University Dr', 'Davie, FL 33328']}","{'latitude': 26.0519063, 'longitude': -80.2519315}",Miami
"['Piercing', 'Art Galleries', 'Tattoo']",The Shop Tattoo Studio,5.0,7,"{'address1': '1988 W 60th St', 'address2': None, 'address3': '', 'city': 'Hialeah', 'zip_code': '33012', 'country': 'US', 'state': 'FL', 'display_address': ['1988 W 60th St', 'Hialeah, FL 33012']}","{'latitude': 25.8763378, 'longitude': -80.3224482116394}",Miami
"['Social Clubs', 'Wine Bars', 'Bookstores']",Veni Vidi Vici Social Club,5.0,36,"{'address1': '310 NE 62nd St', 'address2': None, 'address3': '', 'city': 'Miami', 'zip_code': '33138', 'country': 'US', 'state': 'FL', 'display_address': ['310 NE 62nd St', 'Miami, FL 33138']}","{'latitude': 25.8330117, 'longitude': -80.18993689999999}",Miami
"['Life Coach', 'Psychics', 'Astrologers']",Ana Maria Pineda,5.0,6,"{'address1': None, 'address2': None, 'address3': None, 'city': 'Miami', 'zip_code': '33193', 'country': 'US', 'state': 'FL', 'display_address': ['Miami, FL 33193']}","{'latitude': 25.6959114074707, 'longitude': -80.4456939697266}",Miami
['Art Galleries'],Laundromat Art Space,5.0,6,"{'address1': '5900 NE 2nd Ave', 'address2': '', 'address3': '', 'city': 'Miami', 'zip_code': '33137', 'country': 'US', 'state': 'FL', 'display_address': ['5900 NE 2nd Ave', 'Miami, FL 33137']}","{'latitude': 25.8299183931093, 'longitude': -80.192353874445}",Miami
['Performing Arts'],Magic Mike Live: The Tour,5.0,64,"{'address1': '2601 Preston Rd', 'address2': None, 'address3': '', 'city': 'Frisco', 'zip_code': '75034', 'country': 'US', 'state': 'TX', 'display_address': ['2601 Preston Rd', 'Frisco, TX 75034']}","{'latitude': 33.09923986995121, 'longitude': -96.81148859999999}",Miami
"['Art Classes', 'Paint & Sip']",Painting with a Twist - Davie,5.0,140,"{'address1': '5810 S University Dr', 'address2': 'Ste 106', 'address3': None, 'city': 'Davie', 'zip_code': '33328', 'country': 'US', 'state': 'FL', 'display_address': ['5810 S University Dr', 'Ste 106', 'Davie, FL 33328']}","{'latitude': 26.047675521541834, 'longitude': -80.2482486665942}",Miami
"['Psychics', 'Life Coach', 'Meditation Centers']",Psychic Therapist - Ziva,5.0,10,"{'address1': '816 SW 24th St', 'address2': '', 'address3': None, 'city': 'Fort Lauderdale', 'zip_code': '33315', 'country': 'US', 'state': 'FL', 'display_address': ['816 SW 24th St', 'Fort Lauderdale, FL 33315']}","{'latitude': 26.092322, 'longitude': -80.151603}",Miami
['Performing Arts'],The Vanguard,5.0,5,"{'address1': '1501 S Andrews Ave', 'address2': '', 'address3': None, 'city': 'Fort Lauderdale', 'zip_code': '33316', 'country': 'US', 'state': 'FL', 'display_address': ['1501 S Andrews Ave', 'Fort Lauderdale, FL 33316']}","{'latitude': 26.1030327017309, 'longitude': -80.1430528610945}",Miami
"['Comedy Clubs', 'Performing Arts']",The Comedy Inn,5.0,27,"{'address1': '14501 S Dixie Hwy', 'address2': '', 'address3': '', 'city': 'Miami', 'zip_code': '33176', 'country': 'US', 'state': 'FL', 'display_address': ['14501 S Dixie Hwy', 'Miami, FL 33176']}","{'latitude': 25.634922, 'longitude': -80.337614}",Miami
"['Art Galleries', 'Venues & Event Spaces', 'Music Venues']",Fusse Studios,5.0,9,"{'address1': '327 NE 59th Ter', 'address2': '', 'address3': '', 'city': 'Miami', 'zip_code': '33137', 'country': 'US', 'state': 'FL', 'display_address': ['327 NE 59th Ter', 'Miami, FL 33137']}","{'latitude': 25.8306412, 'longitude': -80.1900387}",Miami
"['Musicians', 'Performing Arts', 'Party Equipment Rentals']",Satori Sounds,5.0,4,"{'address1': '12355 NE 13th Ave', 'address2': 'Ste 205', 'address3': '', 'city': 'North Miami', 'zip_code': '33161', 'country': 'US', 'state': 'FL', 'display_address': ['12355 NE 13th Ave', 'Ste 205', 'North Miami, FL 33161']}","{'latitude': 25.88942, 'longitude': -80.17194}",Miami
"['Art Galleries', 'Art Consultants']",ABRA Gallery,5.0,8,"{'address1': '713 East Las Olas Blvd', 'address2': '', 'address3': '', 'city': 'Fort Lauderdale', 'zip_code': '33301', 'country': 'US', 'state': 'FL', 'display_address': ['713 East Las Olas Blvd', 'Fort Lauderdale, FL 33301']}","{'latitude': 26.119515, 'longitude': -80.135902}",Miami
"['Party & Event Planning', 'Paint & Sip', 'Art Classes']",Yaymaker,5.0,8,"{'address1': None, 'address2': '', 'address3': '', 'city': 'Miami', 'zip_code': '33130', 'country': 'US', 'state': 'FL', 'display_address': ['Miami, FL 33130']}","{'latitude': 25.7405290927732, 'longitude': -80.22216796875}",Miami
['LAN Centers'],Next Level Gaming Miami,5.0,4,"{'address1': '10772 SW 24th St', 'address2': '', 'address3': None, 'city': 'Miami', 'zip_code': '33165', 'country': 'US', 'state': 'FL', 'display_address': ['10772 SW 24th St', 'Miami, FL 33165']}","{'latitude': 25.7461, 'longitude': -80.36895}",Miami
"['Coffee & Tea', 'Music Venues', 'Bars']",Twisted Roots Kava Brewery,4.5,55,"{'address1': '2037 Hollywood Blvd', 'address2': None, 'address3': '', 'city': 'Hollywood', 'zip_code': '33020', 'country': 'US', 'state': 'FL', 'display_address': ['2037 Hollywood Blvd', 'Hollywood, FL 33020']}","{'latitude': 26.01173, 'longitude': -80.14856}",Miami
"['Art Galleries', 'Museums']",Museum of Graffiti,4.5,46,"{'address1': '276 NW 26th St', 'address2': '', 'address3': None, 'city': 'Miami', 'zip_code': '33127', 'country': 'US', 'state': 'FL', 'display_address': ['276 NW 26th St', 'Miami, FL 33127']}","{'latitude': 25.801198, 'longitude': -80.200649}",Miami
"['Art Museums', 'Venues & Event Spaces']",Original Selfie Museum,4.5,65,"{'address1': '179 NW 25th St', 'address2': '', 'address3': None, 'city': 'Miami', 'zip_code': '33127', 'country': 'US', 'state': 'FL', 'display_address': ['179 NW 25th St', 'Miami, FL 33127']}","{'latitude': 25.8009326, 'longitude': -80.19865365767012}",Miami
"['Musicians', 'Party & Event Planning', 'Eatertainment']",Mariachi los Mensajeros,4.5,36,"{'address1': '10720 W Flagler St', 'address2': None, 'address3': None, 'city': 'Miami', 'zip_code': '33174', 'country': 'US', 'state': 'FL', 'display_address': ['10720 W Flagler St', 'Miami, FL 33174']}","{'latitude': 25.7671577, 'longitude': -80.3696058}",Miami
"['Paint & Sip', 'Art Classes']",Painting with a Twist,4.5,39,"{'address1': '15971 Pines Blvd', 'address2': None, 'address3': 'Westfork Plaza', 'city': 'Pembroke Pines', 'zip_code': '33027', 'country': 'US', 'state': 'FL', 'display_address': ['15971 Pines Blvd', 'Westfork Plaza', 'Pembroke Pines, FL 33027']}","{'latitude': 26.0078849, 'longitude': -80.3615364}",Miami
"['Gun/Rifle Ranges', 'Museums']",Lock and Load Miami Machine Gun Experience & Range,4.5,164,"{'address1': '2545 North Miami Ave', 'address2': '', 'address3': '', 'city': 'Miami', 'zip_code': '33127', 'country': 'US', 'state': 'FL', 'display_address': ['2545 North Miami Ave', 'Miami, FL 33127']}","{'latitude': 25.8013449, 'longitude': -80.1945177}",Miami
"['Arcades', 'Pop-up Shops']",Stranger Things: The Official Store - Miami,4.5,17,"{'address1': '19501 Biscayne Blvd', 'address2': None, 'address3': '', 'city': 'Aventura', 'zip_code': '33180', 'country': 'US', 'state': 'FL', 'display_address': ['19501 Biscayne Blvd', 'Aventura, FL 33180']}","{'latitude': 25.955866518524484, 'longitude': -80.14149232653106}",Miami
"['Performing Arts', 'Musicians']",Mariachi Voces de America,4.5,10,"{'address1': '', 'address2': '', 'address3': '', 'city': 'Miami', 'zip_code': '33024', 'country': 'US', 'state': 'FL', 'display_address': ['Miami, FL 33024']}","{'latitude': 26.01645, 'longitude': -80.2456}",Miami
['Cinema'],O Cinema South Beach,4.5,42,"{'address1': '1130 Washington Ave', 'address2': '', 'address3': '', 'city': 'Miami Beach', 'zip_code': '33139', 'country': 'US', 'state': 'FL', 'display_address': ['1130 Washington Ave', 'Miami Beach, FL 33139']}","{'latitude': 25.782914, 'longitude': -80.1326305}",Miami
"['Clowns', 'Magicians', 'Performing Arts']",All-In-One Kids Entertainment,4.5,16,"{'address1': '8628 NW 44th St', 'address2': None, 'address3': '', 'city': 'sunrise', 'zip_code': '33351', 'country': 'US', 'state': 'FL', 'display_address': ['8628 NW 44th St', 'sunrise, FL 33351']}","{'latitude': 26.1790823, 'longitude': -80.2678559}",Miami
['Performing Arts'],Amparo,4.5,32,"{'address1': '221 NE 17th St', 'address2': None, 'address3': '', 'city': 'Miami', 'zip_code': '33132', 'country': 'US', 'state': 'FL', 'display_address': ['221 NE 17th St', 'Miami, FL 33132']}","{'latitude': 25.79172, 'longitude': -80.19018}",Miami
"['Arcades', 'LAN Centers', 'Beer Bar']",Arcade Odyssey,4.5,197,"{'address1': '12045 SW 117th Ave', 'address2': '', 'address3': '', 'city': 'Miami', 'zip_code': '33186', 'country': 'US', 'state': 'FL', 'display_address': ['12045 SW 117th Ave', 'Miami, FL 33186']}","{'latitude': 25.655418503709132, 'longitude': -80.38271}",Miami
['Museums'],Paradox Museum - Miami,4.5,25,"{'address1': '2301 N Miami Ave', 'address2': '', 'address3': None, 'city': 'Miami', 'zip_code': '33127', 'country': 'US', 'state': 'FL', 'display_address': ['2301 N Miami Ave', 'Miami, FL 33127']}","{'latitude': 25.798981362709938, 'longitude': -80.1948151}",Miami
"['Supernatural Readings', 'Reiki', 'Religious Items']","Esmeralda's Earth, Wind and Fire Boutique",4.5,34,"{'address1': '12345 SW 224th St', 'address2': '', 'address3': 'Cottage 12345', 'city': 'Miami', 'zip_code': '33170', 'country': 'US', 'state': 'FL', 'display_address': ['12345 SW 224th St', 'Cottage 12345', 'Miami, FL 33170']}","{'latitude': 25.559057, 'longitude': -80.391519}",Miami
"['Mediterranean', 'Jazz & Blues', 'Wine Bars']",Jass Kitchen,4.5,82,"{'address1': '190 NE 46th St', 'address2': None, 'address3': '', 'city': 'Miami', 'zip_code': '33137', 'country': 'US', 'state': 'FL', 'display_address': ['190 NE 46th St', 'Miami, FL 33137']}","{'latitude': 25.817669, 'longitude': -80.191804}",Miami
"['Art Classes', 'Paint & Sip']",Painting with a Twist - Kendall,4.5,46,"{'address1': '12582 SW 88th St', 'address2': '', 'address3': None, 'city': 'Miami', 'zip_code': '33186', 'country': 'US', 'state': 'FL', 'display_address': ['12582 SW 88th St', 'Miami, FL 33186']}","{'latitude': 25.6843540606221, 'longitude': -80.3990874812007}",Miami
['Arts & Entertainment'],PaintPartyLife,4.5,13,"{'address1': None, 'address2': None, 'address3': '', 'city': 'Miami', 'zip_code': '33018', 'country': 'US', 'state': 'FL', 'display_address': ['Miami, FL 33018']}","{'latitude': 25.7890972, 'longitude': -80.2040435}",Miami
['Cinema'],Tower Theater Miami,4.5,53,"{'address1': '1508 SW 8th St', 'address2': '', 'address3': '', 'city': 'Miami', 'zip_code': '33135', 'country': 'US', 'state': 'FL', 'display_address': ['1508 SW 8th St', 'Miami, FL 33135']}","{'latitude': 25.7654, 'longitude': -80.21972}",Miami
"['Paint & Sip', 'Art Classes', 'Team Building Activities']",Painting with a Twist,4.5,72,"{'address1': '2399 SW 22nd St', 'address2': None, 'address3': None, 'city': 'Miami', 'zip_code': '33145', 'country': 'US', 'state': 'FL', 'display_address': ['2399 SW 22nd St', 'Miami, FL 33145']}","{'latitude': 25.75073, 'longitude': -80.23404}",Miami
"['Bars', 'Music Venues', 'American (Traditional)']",The Doral Yard,4.5,325,"{'address1': '8455 NW 53rd St', 'address2': 'Ste 106', 'address3': '', 'city': 'Doral', 'zip_code': '33166', 'country': 'US', 'state': 'FL', 'display_address': ['8455 NW 53rd St', 'Ste 106', 'Doral, FL 33166']}","{'latitude': 25.81999998, 'longitude': -80.33561727}",Miami
"['Jewelry', 'Spiritual Shop', 'Psychics']",Celestial Treasures,4.5,85,"{'address1': '3444 Main Hwy', 'address2': 'Ste 3', 'address3': '', 'city': 'Coconut Grove', 'zip_code': '33133', 'country': 'US', 'state': 'FL', 'display_address': ['3444 Main Hwy', 'Ste 3', 'Coconut Grove, FL 33133']}","{'latitude': 25.7271701499366, 'longitude': -80.2434604232677}",Miami
"['Soccer', 'Basketball Courts', 'Stadiums & Arenas']",Urban Indoor Futbol,4.5,9,"{'address1': '1125 NW 71st St', 'address2': '', 'address3': None, 'city': 'Miami', 'zip_code': '33150', 'country': 'US', 'state': 'FL', 'display_address': ['1125 NW 71st St', 'Miami, FL 33150']}","{'latitude': 25.839909686805864, 'longitude': -80.21585417181491}",Miami
"['Art Galleries', 'Glass Blowing']",Hollywood Hot Glass,4.5,101,"{'address1': '1 Young Cir', 'address2': None, 'address3': '', 'city': 'Hollywood', 'zip_code': '33020', 'country': 'US', 'state': 'FL', 'display_address': ['1 Young Cir', 'Hollywood, FL 33020']}","{'latitude': 26.011326723108077, 'longitude': -80.14242463714079}",Miami
"['Psychics', 'Psychic Mediums']",Mystical Boutique Psychic & Tarot Card Reader,4.5,42,"{'address1': '1805 East Sample Road', 'address2': None, 'address3': '', 'city': 'Pompano Beach', 'zip_code': '33064', 'country': 'US', 'state': 'FL', 'display_address': ['1805 East Sample Road', 'Pompano Beach, FL 33064']}","{'latitude': 26.2756231, 'longitude': -80.0991008}",Miami
['Festivals'],Orchid Show - Fort Lauderdale Orchid Society,5.0,4,"{'address1': '1950 Eisenhower Blvd', 'address2': '', 'address3': 'convention center', 'city': 'Fort Lauderdale', 'zip_code': '33316', 'country': 'US', 'state': 'FL', 'display_address': ['1950 Eisenhower Blvd', 'convention center', 'Fort Lauderdale, FL 33316']}","{'latitude': 26.098596, 'longitude': -80.122735}",Miami
['Psychics'],Psychic of Pembroke,5.0,3,"{'address1': '828 W Pembroke Rd', 'address2': '', 'address3': '', 'city': 'Hallandale', 'zip_code': '33009', 'country': 'US', 'state': 'FL', 'display_address': ['828 W Pembroke Rd', 'Hallandale, FL 33009']}","{'latitude': 25.9958960965443, 'longitude': -80.1603537797928}",Miami
['Art Galleries'],RH Art Gallery,5.0,3,"{'address1': '17820 W Dixie Hwy', 'address2': None, 'address3': '', 'city': 'North Miami Beach', 'zip_code': '33160', 'country': 'US', 'state': 'FL', 'display_address': ['17820 W Dixie Hwy', 'North Miami Beach, FL 33160']}","{'latitude': 25.940326, 'longitude': -80.150261}",Miami
['Performing Arts'],Aloha Islanders Hawaiian Entertainment,5.0,3,"{'address1': '1 Ftlauderdale', 'address2': None, 'address3': '', 'city': 'Fort Lauderdale', 'zip_code': '33304', 'country': 'US', 'state': 'FL', 'display_address': ['1 Ftlauderdale', 'Fort Lauderdale, FL 33304']}","{'latitude': 26.056025, 'longitude': -80.306298}",Miami
"['Social Clubs', 'Lounges']",Montecristo Lounge,5.0,3,"{'address1': '1928 Harrison St', 'address2': '', 'address3': '', 'city': 'Hollywood', 'zip_code': '33020', 'country': 'US', 'state': 'FL', 'display_address': ['1928 Harrison St', 'Hollywood, FL 33020']}","{'latitude': 26.010292, 'longitude': -80.146164}",Miami
"['Art Classes', 'Paint & Sip']",Painting Picnik,5.0,3,"{'address1': '111 NW 5th St', 'address2': None, 'address3': '', 'city': 'Fort Lauderdale', 'zip_code': '33301', 'country': 'US', 'state': 'FL', 'display_address': ['111 NW 5th St', 'Fort Lauderdale, FL 33301']}","{'latitude': 26.1278776, 'longitude': -80.1450931}",Miami
['Supernatural Readings'],Cherokee Billie Spiritual Advisor,5.0,3,"{'address1': '', 'address2': '', 'address3': '', 'city': 'Doral', 'zip_code': '33198', 'country': 'US', 'state': 'FL', 'display_address': ['Doral, FL 33198']}","{'latitude': 25.79875, 'longitude': -80.32901}",Miami
"['Coffee & Tea', 'Music Venues', 'Tea Rooms']",Tea & Poets,4.5,138,"{'address1': '5701 Sunset Dr', 'address2': 'Unit 126', 'address3': '', 'city': 'South Miami', 'zip_code': '33143', 'country': 'US', 'state': 'FL', 'display_address': ['5701 Sunset Dr', 'Unit 126', 'South Miami, FL 33143']}","{'latitude': 25.705632299808, 'longitude': -80.2860339300594}",Miami
"['Art Classes', 'Paint & Sip']",Painting with a Twist - Miami Lakes,4.5,51,"{'address1': '15100 NW 67th Ave', 'address2': 'Ste 111', 'address3': '', 'city': 'Miami Lakes', 'zip_code': '33014', 'country': 'US', 'state': 'FL', 'display_address': ['15100 NW 67th Ave', 'Ste 111', 'Miami Lakes, FL 33014']}","{'latitude': 25.91068, 'longitude': -80.30974}",Miami
['Art Galleries'],Art Wynwood,4.5,11,"{'address1': '14th St NE', 'address2': '', 'address3': 'One Herald Plaza', 'city': 'Miami', 'zip_code': '33132', 'country': 'US', 'state': 'FL', 'display_address': ['14th St NE', 'One Herald Plaza', 'Miami, FL 33132']}","{'latitude': 25.8045422987281, 'longitude': -80.1930512380982}",Miami
['Art Galleries'],Art Fusion Galleries,4.5,9,"{'address1': '2085 NW 2nd Ave', 'address2': '', 'address3': '', 'city': 'Miami', 'zip_code': '33127', 'country': 'US', 'state': 'FL', 'display_address': ['2085 NW 2nd Ave', 'Miami, FL 33127']}","{'latitude': 25.79653, 'longitude': -80.19869}",Miami
"['Venues & Event Spaces', 'Country Clubs']",Lauderdale Yacht Club,4.5,16,"{'address1': '1725 SE 12th St', 'address2': '', 'address3': '', 'city': 'Fort Lauderdale', 'zip_code': '33316', 'country': 'US', 'state': 'FL', 'display_address': ['1725 SE 12th St', 'Fort Lauderdale, FL 33316']}","{'latitude': 26.1083087855937, 'longitude': -80.1245133495109}",Miami
['Cinema'],Coral Gables Art Cinema,4.5,71,"{'address1': '260 Aragon Ave', 'address2': '', 'address3': '', 'city': 'Coral Gables', 'zip_code': '33134', 'country': 'US', 'state': 'FL', 'display_address': ['260 Aragon Ave', 'Coral Gables, FL 33134']}","{'latitude': 25.750342, 'longitude': -80.2598877}",Miami
['Art Museums'],Rubell Museum,4.5,53,"{'address1': '1100 NW 23rd St', 'address2': '', 'address3': '', 'city': 'Miami', 'zip_code': '33127', 'country': 'US', 'state': 'FL', 'display_address': ['1100 NW 23rd St', 'Miami, FL 33127']}","{'latitude': 25.798687, 'longitude': -80.214271}",Miami
"['Cocktail Bars', 'Music Venues']",The Scape Goat,4.5,100,"{'address1': '100 Collins Ave', 'address2': 'CU4', 'address3': '', 'city': 'Miami Beach', 'zip_code': '33139', 'country': 'US', 'state': 'FL', 'display_address': ['100 Collins Ave', 'CU4', 'Miami Beach, FL 33139']}","{'latitude': 25.7698, 'longitude': -80.13418}",Miami
"['Cinema', 'Performing Arts']",Teatro Trail / Trail Theater,4.5,30,"{'address1': '3715 SW 8th St', 'address2': '', 'address3': '', 'city': 'Coral Gables', 'zip_code': '33134', 'country': 'US', 'state': 'FL', 'display_address': ['3715 SW 8th St', 'Coral Gables, FL 33134']}","{'latitude': 25.76491, 'longitude': -80.25549}",Miami
"['Paint & Sip', 'Art Classes', 'Kids Activities']",Pop Up Paint Shop,4.5,10,"{'address1': '5701 Sunset Dr S', 'address2': 'Ste 216', 'address3': '', 'city': 'Miami', 'zip_code': '33143', 'country': 'US', 'state': 'FL', 'display_address': ['5701 Sunset Dr S', 'Ste 216', 'Miami, FL 33143']}","{'latitude': 25.70566, 'longitude': -80.28636}",Miami
"['Parks', 'Rafting/Kayaking', 'Museums']",Anne Kolb Nature Center,4.5,76,"{'address1': '751 Sheridan St', 'address2': '', 'address3': '', 'city': 'Hollywood', 'zip_code': '33019', 'country': 'US', 'state': 'FL', 'display_address': ['751 Sheridan St', 'Hollywood, FL 33019']}","{'latitude': 26.038609, 'longitude': -80.119605}",Miami
['Art Galleries'],EVL World,4.5,18,"{'address1': '101 NW 36th St', 'address2': '', 'address3': '', 'city': 'Miami', 'zip_code': '33127', 'country': 'US', 'state': 'FL', 'display_address': ['101 NW 36th St', 'Miami, FL 33127']}","{'latitude': 25.8105769, 'longitude': -80.1979658}",Miami
"['Supernatural Readings', 'Spiritual Shop', 'Reiki']",Luna Bohemia,4.5,48,"{'address1': '8233 S Dixie Hwy', 'address2': '', 'address3': '', 'city': 'Miami', 'zip_code': '33143', 'country': 'US', 'state': 'FL', 'display_address': ['8233 S Dixie Hwy', 'Miami, FL 33143']}","{'latitude': 25.6934674656328, 'longitude': -80.3014257159019}",Miami
['Art Galleries'],LIK Fine Art Miami,4.5,34,"{'address1': '655 Lincoln Rd', 'address2': '', 'address3': '', 'city': 'Miami Beach', 'zip_code': '33139', 'country': 'US', 'state': 'FL', 'display_address': ['655 Lincoln Rd', 'Miami Beach, FL 33139']}","{'latitude': 25.7908149, 'longitude': -80.1353816}",Miami
['Cinema'],Cinema Paradiso,4.5,17,"{'address1': '2008 Hollywood Blvd', 'address2': '', 'address3': '', 'city': 'Hollywood', 'zip_code': '33020', 'country': 'US', 'state': 'FL', 'display_address': ['2008 Hollywood Blvd', 'Hollywood, FL 33020']}","{'latitude': 26.011089, 'longitude': -80.147415}",Miami
"['Venues & Event Spaces', 'Country Clubs']",Grand Bay Club,4.5,9,"{'address1': '425 Crandon Blvd', 'address2': '', 'address3': '', 'city': 'Key Biscayne', 'zip_code': '33149', 'country': 'US', 'state': 'FL', 'display_address': ['425 Crandon Blvd', 'Key Biscayne, FL 33149']}","{'latitude': 25.6934467703104, 'longitude': -80.1627691090107}",Miami
"['Mini Golf', 'Arcades']",Monster Mini Golf,4.5,293,"{'address1': '14435 Miramar Pkwy', 'address2': None, 'address3': '', 'city': 'Miramar', 'zip_code': '33027', 'country': 'US', 'state': 'FL', 'display_address': ['14435 Miramar Pkwy', 'Miramar, FL 33027']}","{'latitude': 25.980312, 'longitude': -80.338464}",Miami
"['Cocktail Bars', 'Barbeque', 'Music Venues']",Bar Nancy,4.5,196,"{'address1': '2007 SW 8th St', 'address2': None, 'address3': '', 'city': 'Miami', 'zip_code': '33135', 'country': 'US', 'state': 'FL', 'display_address': ['2007 SW 8th St', 'Miami, FL 33135']}","{'latitude': 25.76576, 'longitude': -80.22827}",Miami
"['Virtual Reality Centers', 'Arcades', 'Laser Tag']",VR Player 1 Virtual Reality Arcade ,4.5,19,"{'address1': '1939 Hollywood Blvd', 'address2': None, 'address3': None, 'city': 'Hollywood', 'zip_code': '33020', 'country': 'US', 'state': 'FL', 'display_address': ['1939 Hollywood Blvd', 'Hollywood, FL 33020']}","{'latitude': 26.0117787, 'longitude': -80.1465872}",Miami
"['Playgrounds', 'Performing Arts', 'Recreation Centers']",Hollywood Artspark At Young Circle,4.5,37,"{'address1': '1 Young Cir', 'address2': '', 'address3': '', 'city': 'Hollywood', 'zip_code': '33020', 'country': 'US', 'state': 'FL', 'display_address': ['1 Young Cir', 'Hollywood, FL 33020']}","{'latitude': 26.01138488615392, 'longitude': -80.14233514369992}",Miami
"['Musicians', 'Performing Arts']",Mariachi Fiesta Grande Miami Florida,4.5,17,"{'address1': '1730 SW 138th Ct', 'address2': '', 'address3': '', 'city': 'Miami', 'zip_code': '33175', 'country': 'US', 'state': 'FL', 'display_address': ['1730 SW 138th Ct', 'Miami, FL 33175']}","{'latitude': 25.837823, 'longitude': -80.3639293}",Miami
"['Cinema', 'Performing Arts']",Actors' Playhouse At The Miracle,4.5,49,"{'address1': '280 Miracle Mile', 'address2': '', 'address3': '', 'city': 'Coral Gables', 'zip_code': '33134', 'country': 'US', 'state': 'FL', 'display_address': ['280 Miracle Mile', 'Coral Gables, FL 33134']}","{'latitude': 25.749239365964794, 'longitude': -80.26043708053888}",Miami
"['Astrologers', 'Psychics']",Psychic Advice,4.5,39,"{'address1': '4025 Gem Lake Dr', 'address2': '', 'address3': '', 'city': 'West Palm Beach', 'zip_code': '33406', 'country': 'US', 'state': 'FL', 'display_address': ['4025 Gem Lake Dr', 'West Palm Beach, FL 33406']}","{'latitude': 26.6749104, 'longitude': -80.07648979999999}",Miami
"['Fruits & Veggies', 'Pick Your Own Farms']",Vuon Trai Cay Miami,4.5,11,"{'address1': '18100 SW 136th St', 'address2': None, 'address3': '', 'city': 'Miami', 'zip_code': '33196', 'country': 'US', 'state': 'FL', 'display_address': ['18100 SW 136th St', 'Miami, FL 33196']}","{'latitude': 25.63698, 'longitude': -80.48621}",Miami
['Museums'],Coral Gables Museum,4.5,41,"{'address1': '285 Aragon Ave', 'address2': '', 'address3': '', 'city': 'Coral Gables', 'zip_code': '33134', 'country': 'US', 'state': 'FL', 'display_address': ['285 Aragon Ave', 'Coral Gables, FL 33134']}","{'latitude': 25.75071, 'longitude': -80.26045}",Miami
"['Social Clubs', 'Sailing']",Miami Yacht Club,4.5,23,"{'address1': '1001 MacArthur Cswy', 'address2': None, 'address3': '', 'city': 'Miami', 'zip_code': '33132', 'country': 'US', 'state': 'FL', 'display_address': ['1001 MacArthur Cswy', 'Miami, FL 33132']}","{'latitude': 25.786154901820996, 'longitude': -80.17333804665519}",Miami
"['Tattoo', 'Art Galleries']",Black Craft Tattoo Collective,5.0,2,"{'address1': '13617 SW 26th St', 'address2': None, 'address3': None, 'city': 'Miami', 'zip_code': '33175', 'country': 'US', 'state': 'FL', 'display_address': ['13617 SW 26th St', 'Miami, FL 33175']}","{'latitude': 25.744103, 'longitude': -80.415498}",Miami
"['Music Venues', 'Lounges']",Da Cave,4.5,4,"{'address1': '13641 NW 7th Ave', 'address2': '', 'address3': None, 'city': 'North Miami', 'zip_code': '33168', 'country': 'US', 'state': 'FL', 'display_address': ['13641 NW 7th Ave', 'North Miami, FL 33168']}","{'latitude': 25.8993289496202, 'longitude': -80.2110223844647}",Miami
"['Clowns', 'Performing Arts', 'Magicians']",Danny Grant Variety Show,5.0,2,"{'address1': '', 'address2': '', 'address3': '', 'city': 'Boca Raton', 'zip_code': '33432', 'country': 'US', 'state': 'FL', 'display_address': ['Boca Raton, FL 33432']}","{'latitude': 26.34406, 'longitude': -80.07791}",Miami
['Art Galleries'],Sher Gallery,5.0,2,"{'address1': '800 Silks Run', 'address2': 'Ste 1320', 'address3': '', 'city': 'Hallandale Beach', 'zip_code': '33009', 'country': 'US', 'state': 'FL', 'display_address': ['800 Silks Run', 'Ste 1320', 'Hallandale Beach, FL 33009']}","{'latitude': 25.9778576, 'longitude': -80.1408539}",Miami
"['Performing Arts', 'Summer Camps']",Acro Gravity Academy,5.0,2,"{'address1': '1935 NE 150th St', 'address2': None, 'address3': '', 'city': 'North Miami Beach', 'zip_code': '33181', 'country': 'US', 'state': 'FL', 'display_address': ['1935 NE 150th St', 'North Miami Beach, FL 33181']}","{'latitude': 25.914222, 'longitude': -80.160674}",Miami
"['Venues & Event Spaces', 'Art Galleries', 'Jewelry']",Buro79Wynwood,5.0,2,"{'address1': '125 NW 23rd St', 'address2': '', 'address3': None, 'city': 'Miami', 'zip_code': '33127', 'country': 'US', 'state': 'FL', 'display_address': ['125 NW 23rd St', 'Miami, FL 33127']}","{'latitude': 25.799304976931893, 'longitude': -80.197380669415}",Miami
['Casinos'],Havana Cafe at Hialeah Park,5.0,2,"{'address1': '100 E 32nd St', 'address2': '', 'address3': None, 'city': 'Hialeah', 'zip_code': '33010', 'country': 'US', 'state': 'FL', 'display_address': ['100 E 32nd St', 'Hialeah, FL 33010']}","{'latitude': 25.8510751, 'longitude': -80.2806075}",Miami
['Paint & Sip'],Artertaining,5.0,2,"{'address1': None, 'address2': None, 'address3': '', 'city': 'Miami Beach', 'zip_code': '33139', 'country': 'US', 'state': 'FL', 'display_address': ['Miami Beach, FL 33139']}","{'latitude': 25.7824954986572, 'longitude': -80.1362457275391}",Miami
"['Ayurveda', 'Astrologers', 'Psychics']",ASK Dr Scott and Anabella,5.0,2,"{'address1': None, 'address2': None, 'address3': '', 'city': 'Miami', 'zip_code': '33131', 'country': 'US', 'state': 'FL', 'display_address': ['Miami, FL 33131']}","{'latitude': 25.763293444488582, 'longitude': -80.18467675416966}",Miami
['Country Clubs'],Jacaranda Country Club,4.5,24,"{'address1': '9200 W Broward Blvd', 'address2': '', 'address3': '', 'city': 'Plantation', 'zip_code': '33324', 'country': 'US', 'state': 'FL', 'display_address': ['9200 W Broward Blvd', 'Plantation, FL 33324']}","{'latitude': 26.111605621438112, 'longitude': -80.27265100090402}",Miami
['Art Galleries'],Conde Contemporary,5.0,2,"{'address1': '204 Miracle Mile', 'address2': None, 'address3': None, 'city': 'Coral Gables', 'zip_code': '33134', 'country': 'US', 'state': 'FL', 'display_address': ['204 Miracle Mile', 'Coral Gables, FL 33134']}","{'latitude': 25.74922, 'longitude': -80.2589}",Miami
"['Piano Bars', 'Musicians', 'Performing Arts']",David Mann,5.0,2,"{'address1': None, 'address2': None, 'address3': '', 'city': 'Fort Lauderdale', 'zip_code': '33305', 'country': 'US', 'state': 'FL', 'display_address': ['Fort Lauderdale, FL 33305']}","{'latitude': 26.1531223, 'longitude': -80.1233175}",Miami
['Performing Arts'],Angels Entertainment,5.0,2,"{'address1': '', 'address2': '', 'address3': '', 'city': 'Miami', 'zip_code': '33165', 'country': 'US', 'state': 'FL', 'display_address': ['Miami, FL 33165']}","{'latitude': 25.73542, 'longitude': -80.35817}",Miami
"['Dance Studios', 'Performing Arts']",Fred Astaire,4.5,4,"{'address1': '1810 Cordova Rd', 'address2': None, 'address3': None, 'city': 'Fort Lauderdale', 'zip_code': '33316', 'country': 'US', 'state': 'FL', 'display_address': ['1810 Cordova Rd', 'Fort Lauderdale, FL 33316']}","{'latitude': 26.0987, 'longitude': -80.1297297}",Miami
"['Life Coach', 'Astrologers']",Soul In Vibration,5.0,2,"{'address1': None, 'address2': None, 'address3': '', 'city': 'Fort Lauderdale Florida', 'zip_code': '33319', 'country': 'US', 'state': 'CA', 'display_address': ['Fort Lauderdale Florida, CA 33319']}","{'latitude': 26.1819, 'longitude': -80.20914}",Miami
['Art Galleries'],Galleries Bartoux,5.0,2,"{'address1': '127 NE 40th St', 'address2': '', 'address3': None, 'city': 'Miami', 'zip_code': '33137', 'country': 'US', 'state': 'FL', 'display_address': ['127 NE 40th St', 'Miami, FL 33137']}","{'latitude': 25.81367, 'longitude': -80.19282}",Miami
['Virtual Reality Centers'],Inbattle,5.0,2,"{'address1': '2818 NW 5th Ave', 'address2': None, 'address3': '', 'city': 'Miami', 'zip_code': '33127', 'country': 'US', 'state': 'FL', 'display_address': ['2818 NW 5th Ave', 'Miami, FL 33127']}","{'latitude': 25.80307, 'longitude': -80.20344}",Miami
"['Skin Care', 'Reiki', 'Supernatural Readings']",Face Body & Soul by Patricia Derizans,5.0,2,"{'address1': '1940 Harrison St', 'address2': None, 'address3': '', 'city': 'Hollywood', 'zip_code': '33020', 'country': 'US', 'state': 'FL', 'display_address': ['1940 Harrison St', 'Hollywood, FL 33020']}","{'latitude': 26.0102, 'longitude': -80.14654}",Miami
"['Performing Arts', 'Party & Event Planning', 'Musicians']",Sekond Nature Band,4.5,4,"{'address1': '', 'address2': None, 'address3': '', 'city': 'Pompano Beach', 'zip_code': '33069', 'country': 'US', 'state': 'FL', 'display_address': ['Pompano Beach, FL 33069']}","{'latitude': 26.22301, 'longitude': -80.16503}",Miami
['Cultural Center'],BaseCamp,5.0,2,"{'address1': '298 NE 61st St', 'address2': None, 'address3': '', 'city': 'Miami', 'zip_code': '33137', 'country': 'US', 'state': 'FL', 'display_address': ['298 NE 61st St', 'Miami, FL 33137']}","{'latitude': 25.83221, 'longitude': -80.190207}",Miami
"['Psychic Mediums', 'Reiki']",Psychic Healing Shop,5.0,2,"{'address1': '101 Diplomat Pkwy', 'address2': 'Ste 1209', 'address3': '', 'city': 'Hallandale Beach', 'zip_code': '33009', 'country': 'US', 'state': 'FL', 'display_address': ['101 Diplomat Pkwy', 'Ste 1209', 'Hallandale Beach, FL 33009']}","{'latitude': 25.98729, 'longitude': -80.12798}",Miami
"['Lounges', 'Music Venues', 'Karaoke']",The Bend Liquor Lounge,4.0,211,"{'address1': '6844 NW 169th St', 'address2': '', 'address3': '', 'city': 'Miami', 'zip_code': '33015', 'country': 'US', 'state': 'FL', 'display_address': ['6844 NW 169th St', 'Miami, FL 33015']}","{'latitude': 25.925445832688677, 'longitude': -80.31113344360227}",Miami
"['Cocktail Bars', 'Music Venues']",Jada Coles,4.0,72,"{'address1': '2845 Coral Way', 'address2': None, 'address3': '', 'city': 'Miami', 'zip_code': '33145', 'country': 'US', 'state': 'FL', 'display_address': ['2845 Coral Way', 'Miami, FL 33145']}","{'latitude': 25.750441392082816, 'longitude': -80.24030692181692}",Miami
['Museums'],The Wolfsonian-FIU,4.0,73,"{'address1': '1001 Washington Ave', 'address2': '', 'address3': '', 'city': 'Miami Beach', 'zip_code': '33139', 'country': 'US', 'state': 'FL', 'display_address': ['1001 Washington Ave', 'Miami Beach, FL 33139']}","{'latitude': 25.78091291, 'longitude': -80.13249321}",Miami
['Cinema'],Paragon Ridge 8,4.0,179,"{'address1': '9200 State Rd 84', 'address2': '', 'address3': '', 'city': 'Davie', 'zip_code': '33324', 'country': 'US', 'state': 'FL', 'display_address': ['9200 State Rd 84', 'Davie, FL 33324']}","{'latitude': 26.1039728, 'longitude': -80.2725363}",Miami
"['Cocktail Bars', 'Music Venues']",The Lapidus Lounge,4.0,5,"{'address1': '1 Lincoln Rd', 'address2': '', 'address3': 'at Ritz Carlton', 'city': 'Miami Beach', 'zip_code': '33109', 'country': 'US', 'state': 'FL', 'display_address': ['1 Lincoln Rd', 'at Ritz Carlton', 'Miami Beach, FL 33109']}","{'latitude': 25.79099, 'longitude': -80.12891}",Miami
"['American (New)', 'Cafes', 'Music Venues']",Icebox Cafe,4.0,389,"{'address1': '219 NE 3rd St', 'address2': None, 'address3': '', 'city': 'Hallandale Beach', 'zip_code': '33009', 'country': 'US', 'state': 'FL', 'display_address': ['219 NE 3rd St', 'Hallandale Beach, FL 33009']}","{'latitude': 25.989521, 'longitude': -80.1461075}",Miami
"['American (New)', 'Wine Tasting Room']",Coopers Hawk Winery & Restaurants,4.0,996,"{'address1': '10310 Pines Blvd', 'address2': None, 'address3': '', 'city': 'Pembroke Pines', 'zip_code': '33026', 'country': 'US', 'state': 'FL', 'display_address': ['10310 Pines Blvd', 'Pembroke Pines, FL 33026']}","{'latitude': 26.007606, 'longitude': -80.283754}",Miami
"['American (Traditional)', 'Sports Bars', 'Music Venues']",The Angry Warthhog Saloon,4.0,26,"{'address1': '5109 SW 90th Ave', 'address2': None, 'address3': None, 'city': 'Cooper City', 'zip_code': '33328', 'country': 'US', 'state': 'FL', 'display_address': ['5109 SW 90th Ave', 'Cooper City, FL 33328']}","{'latitude': 26.0573112, 'longitude': -80.270391}",Miami
['Paint & Sip'],Sip Tales,4.0,22,"{'address1': '1113 E Hallandale Beach Blvd', 'address2': None, 'address3': '', 'city': 'Hallandale Beach', 'zip_code': '33009', 'country': 'US', 'state': 'FL', 'display_address': ['1113 E Hallandale Beach Blvd', 'Hallandale Beach, FL 33009']}","{'latitude': 25.9860520355413, 'longitude': -80.1368471166286}",Miami
['Festivals'],South Miami Art Festival,4.0,11,"{'address1': 'SW 72nd Street - Sunset Dr', 'address2': '', 'address3': '', 'city': 'South Miami', 'zip_code': '33143', 'country': 'US', 'state': 'FL', 'display_address': ['SW 72nd Street - Sunset Dr', 'South Miami, FL 33143']}","{'latitude': 25.7043561373748, 'longitude': -80.2873801689949}",Miami
"['Vape Shops', 'Head Shops', 'Art Galleries']",Wynwoods Glass and Vape,4.0,23,"{'address1': '2605 N Miami Ave', 'address2': None, 'address3': '', 'city': 'Miami', 'zip_code': '33127', 'country': 'US', 'state': 'FL', 'display_address': ['2605 N Miami Ave', 'Miami, FL 33127']}","{'latitude': 25.80197, 'longitude': -80.19481}",Miami
['Cinema'],Leisure Time Cinema,4.5,3,"{'address1': '3917 S State Rd 7', 'address2': '', 'address3': '', 'city': 'Davie', 'zip_code': '33314', 'country': 'US', 'state': 'FL', 'display_address': ['3917 S State Rd 7', 'Davie, FL 33314']}","{'latitude': 26.072995307467394, 'longitude': -80.2069238}",Miami
"['Supernatural Readings', 'Reiki', 'Yoga']",Chakra Healing & Reiki,4.5,3,"{'address1': '', 'address2': None, 'address3': '', 'city': 'North Miami Beach', 'zip_code': '33160', 'country': 'US', 'state': 'FL', 'display_address': ['North Miami Beach, FL 33160']}","{'latitude': 25.9418, 'longitude': -80.14094}",Miami
"['Venues & Event Spaces', 'Art Galleries', 'Art Museums']",The Selfie Room Miami Beach,4.5,3,"{'address1': '721 Collins Ave', 'address2': None, 'address3': '', 'city': 'Miami Beach', 'zip_code': '33139', 'country': 'US', 'state': 'FL', 'display_address': ['721 Collins Ave', 'Miami Beach, FL 33139']}","{'latitude': 25.777297491832527, 'longitude': -80.1321071}",Miami
"['Art Galleries', 'Venues & Event Spaces']",KROMA,4.5,3,"{'address1': '3670 Grand Ave', 'address2': '', 'address3': '', 'city': 'Miami', 'zip_code': '33133', 'country': 'US', 'state': 'FL', 'display_address': ['3670 Grand Ave', 'Miami, FL 33133']}","{'latitude': 25.7274208, 'longitude': -80.2529907}",Miami
['Psychics'],Psychic Vision Center,4.0,66,"{'address1': '', 'address2': None, 'address3': '', 'city': 'Fort Lauderdale', 'zip_code': '33314', 'country': 'US', 'state': 'FL', 'display_address': ['Fort Lauderdale, FL 33314']}","{'latitude': 26.067655234395033, 'longitude': -80.22308397281046}",Miami
"['Hotels', 'Jazz & Blues']",The Betsy Hotel,4.0,286,"{'address1': '1440 Ocean Dr', 'address2': '', 'address3': '', 'city': 'Miami Beach', 'zip_code': '33139', 'country': 'US', 'state': 'FL', 'display_address': ['1440 Ocean Dr', 'Miami Beach, FL 33139']}","{'latitude': 25.78652, 'longitude': -80.12983}",Miami
"['Dive Bars', 'Veterans Organizations']",Veterans of Foreign Wars Post 3559,4.0,35,"{'address1': '650 West Ave', 'address2': '', 'address3': '', 'city': 'Miami Beach', 'zip_code': '33139', 'country': 'US', 'state': 'FL', 'display_address': ['650 West Ave', 'Miami Beach, FL 33139']}","{'latitude': 25.777016, 'longitude': -80.142554}",Miami
"['Bars', 'Music Venues', 'Comedy Clubs']",Gramps,4.0,424,"{'address1': '176 NW 24th St', 'address2': '', 'address3': '', 'city': 'Miami', 'zip_code': '33127', 'country': 'US', 'state': 'FL', 'display_address': ['176 NW 24th St', 'Miami, FL 33127']}","{'latitude': 25.7996102, 'longitude': -80.1982861}",Miami
['Paint & Sip'],The Velvet House,4.0,8,"{'address1': '637 E Dania Beach Blvd', 'address2': '', 'address3': 'Paint and Sip Art Studio', 'city': 'Dania Beach', 'zip_code': '33004', 'country': 'US', 'state': 'FL', 'display_address': ['637 E Dania Beach Blvd', 'Paint and Sip Art Studio', 'Dania Beach, FL 33004']}","{'latitude': 26.0528355, 'longitude': -80.1323242}",Miami
"['Haunted Houses', 'Nightlife']",Paranoia Miami,4.0,93,"{'address1': '2602 NW 5th Ave', 'address2': None, 'address3': '', 'city': 'Miami', 'zip_code': '33127', 'country': 'US', 'state': 'FL', 'display_address': ['2602 NW 5th Ave', 'Miami, FL 33127']}","{'latitude': 25.80111, 'longitude': -80.2034}",Miami
"['Cocktail Bars', 'Food Court', 'Music Venues']",Okeydokey,4.0,44,"{'address1': '268 SW 8th St', 'address2': None, 'address3': '', 'city': 'Miami', 'zip_code': '33130', 'country': 'US', 'state': 'FL', 'display_address': ['268 SW 8th St', 'Miami, FL 33130']}","{'latitude': 25.765951, 'longitude': -80.198851}",Miami
['Wineries'],Schnebly Redland's Winery,4.0,1410,"{'address1': '30205 SW 217th Ave', 'address2': '', 'address3': None, 'city': 'Homestead', 'zip_code': '33030', 'country': 'US', 'state': 'FL', 'display_address': ['30205 SW 217th Ave', 'Homestead, FL 33030']}","{'latitude': 25.4856700171973, 'longitude': -80.5402885999819}",Miami
"['Antiques', 'Art Galleries']",Cauley Square Shops,4.0,63,"{'address1': '22400 Old Dixie Hwy', 'address2': '', 'address3': '', 'city': 'Miami', 'zip_code': '33170', 'country': 'US', 'state': 'FL', 'display_address': ['22400 Old Dixie Hwy', 'Miami, FL 33170']}","{'latitude': 25.559007362736565, 'longitude': -80.3912638285077}",Miami
"['Laser Tag', 'Arcades', 'Kids Activities']",Rocket World,4.0,41,"{'address1': '20911 Johnson St', 'address2': 'Ste 112', 'address3': None, 'city': 'Pembroke Pines', 'zip_code': '33029', 'country': 'US', 'state': 'FL', 'display_address': ['20911 Johnson St', 'Ste 112', 'Pembroke Pines, FL 33029']}","{'latitude': 26.01599, 'longitude': -80.42987}",Miami
"['Seafood', 'Jazz & Blues', 'Cajun/Creole']",The Fish House,4.0,675,"{'address1': '10000 SW 56th St', 'address2': None, 'address3': '', 'city': 'Miami', 'zip_code': '33165', 'country': 'US', 'state': 'FL', 'display_address': ['10000 SW 56th St', 'Miami, FL 33165']}","{'latitude': 25.715470127741995, 'longitude': -80.35709151350669}",Miami
"['American (New)', 'Wine Bars', 'Wine Tasting Room']",Cooper's Hawk Winery & Restaurants - Dania Beach,4.0,319,"{'address1': '1822 Pointe Blvd', 'address2': None, 'address3': '', 'city': 'Dania Beach', 'zip_code': '33004', 'country': 'US', 'state': 'FL', 'display_address': ['1822 Pointe Blvd', 'Dania Beach, FL 33004']}","{'latitude': 26.0536335205176, 'longitude': -80.1600909623538}",Miami
"['Art Museums', 'Art Tours']","Institute of Contemporary Art, Miami",4.0,38,"{'address1': '61 NE 41st St', 'address2': '', 'address3': None, 'city': 'Miami', 'zip_code': '33137', 'country': 'US', 'state': 'FL', 'display_address': ['61 NE 41st St', 'Miami, FL 33137']}","{'latitude': 25.814357, 'longitude': -80.194199}",Miami
"['Cocktail Bars', 'Music Venues', 'Food Stands']",Carousel Club,4.0,87,"{'address1': '901 S Federal Hwy', 'address2': None, 'address3': '', 'city': 'Hallandale Beach', 'zip_code': '33009', 'country': 'US', 'state': 'FL', 'display_address': ['901 S Federal Hwy', 'Hallandale Beach, FL 33009']}","{'latitude': 25.97933991080829, 'longitude': -80.13878278202473}",Miami
"['Music Venues', 'Cocktail Bars', 'Cuban']",Ball & Chain,4.0,1211,"{'address1': '1513 SW 8th St', 'address2': None, 'address3': '', 'city': 'Miami', 'zip_code': '33135', 'country': 'US', 'state': 'FL', 'display_address': ['1513 SW 8th St', 'Miami, FL 33135']}","{'latitude': 25.765829939936697, 'longitude': -80.2197791}",Miami
['Art Galleries'],De' Medici Gallery,5.0,1,"{'address1': '285 NW 26th St', 'address2': '', 'address3': None, 'city': 'Miami', 'zip_code': '33127', 'country': 'US', 'state': 'FL', 'display_address': ['285 NW 26th St', 'Miami, FL 33127']}","{'latitude': 25.80165, 'longitude': -80.2007299}",Miami
"['Performing Arts', 'Musicians']",Jon Saxx Entertainment Group,5.0,1,"{'address1': '8125 NW 191st St', 'address2': '', 'address3': '', 'city': 'Hialeah', 'zip_code': '33015', 'country': 'US', 'state': 'FL', 'display_address': ['8125 NW 191st St', 'Hialeah, FL 33015']}","{'latitude': 25.9471971, 'longitude': -80.333825}",Miami
['Festivals'],Fibega,5.0,1,"{'address1': '1901 Convention Ctr Dr', 'address2': '', 'address3': None, 'city': 'Miami Beach', 'zip_code': '33139', 'country': 'US', 'state': 'FL', 'display_address': ['1901 Convention Ctr Dr', 'Miami Beach, FL 33139']}","{'latitude': 25.79415, 'longitude': -80.13479}",Miami
"['Spiritual Shop', 'Psychics', 'Reiki']",Botanica Babalawo Santero,5.0,1,"{'address1': '213 Luella Ave', 'address2': None, 'address3': '', 'city': 'Charleroi', 'zip_code': '15022', 'country': 'US', 'state': 'PA', 'display_address': ['213 Luella Ave', 'Charleroi, PA 15022']}","{'latitude': 40.1339806, 'longitude': -79.8984871}",Miami
['Festivals'],Carnaval Miami,5.0,1,"{'address1': '1400 SW 1st St', 'address2': '', 'address3': None, 'city': 'Miami', 'zip_code': '33135', 'country': 'US', 'state': 'FL', 'display_address': ['1400 SW 1st St', 'Miami, FL 33135']}","{'latitude': 25.7722282, 'longitude': -80.21812320000001}",Miami
"['Psychics', 'Life Coach']",Psychic Sylvia,5.0,1,"{'address1': '10450 NW 3rd St', 'address2': None, 'address3': '', 'city': 'Plantation ', 'zip_code': '33324', 'country': 'US', 'state': 'FL', 'display_address': ['10450 NW 3rd St', 'Plantation , FL 33324']}","{'latitude': 26.12334, 'longitude': -80.28803}",Miami
"['Cultural Center', 'Art Galleries', 'Venues & Event Spaces']",Art Galori the Gallery,5.0,1,"{'address1': '164 NW 20th St', 'address2': None, 'address3': '', 'city': 'Miami', 'zip_code': '33127', 'country': 'US', 'state': 'FL', 'display_address': ['164 NW 20th St', 'Miami, FL 33127']}","{'latitude': 25.795342, 'longitude': -80.1980983}",Miami
"['Art Tours', 'Museums']",Surreal 360 Exp,5.0,1,"{'address1': '71 NW 14th St', 'address2': '', 'address3': None, 'city': 'Miami', 'zip_code': '33136', 'country': 'US', 'state': 'FL', 'display_address': ['71 NW 14th St', 'Miami, FL 33136']}","{'latitude': 25.788320991164905, 'longitude': -80.19600944361784}",Miami
"['Performing Arts', 'DJs']",A1 Entertainment Services,5.0,1,"{'address1': '', 'address2': None, 'address3': '', 'city': 'Miami', 'zip_code': '33155', 'country': 'US', 'state': 'FL', 'display_address': ['Miami, FL 33155']}","{'latitude': 25.736670789209967, 'longitude': -80.31098282434957}",Miami
['Performing Arts'],Santas Circus And Magical Village,5.0,1,"{'address1': '1111 Parrot Jungle Trl', 'address2': None, 'address3': 'Jungle Island and Village', 'city': 'Miami', 'zip_code': '33132', 'country': 'US', 'state': 'FL', 'display_address': ['1111 Parrot Jungle Trl', 'Jungle Island and Village', 'Miami, FL 33132']}","{'latitude': 25.78509, 'longitude': -80.17421}",Miami
['Supernatural Readings'],Palm and Tarot Center,5.0,1,"{'address1': '3015 W Sunrise Blvd', 'address2': None, 'address3': None, 'city': 'Fort Lauderdale', 'zip_code': '33311', 'country': 'US', 'state': 'FL', 'display_address': ['3015 W Sunrise Blvd', 'Fort Lauderdale, FL 33311']}","{'latitude': 26.1365013122559, 'longitude': -80.185302734375}",Miami
['Arcades'],Furia,5.0,1,"{'address1': '173 NW 23rd St', 'address2': '', 'address3': None, 'city': 'Miami', 'zip_code': '33127', 'country': 'US', 'state': 'FL', 'display_address': ['173 NW 23rd St', 'Miami, FL 33127']}","{'latitude': 25.799299405911395, 'longitude': -80.19859180265246}",Miami
"['Caterers', 'Performing Arts', 'Wedding Chapels']",Live Tables Entertainment & Catering,5.0,1,"{'address1': '', 'address2': '', 'address3': '', 'city': 'Hollywood', 'zip_code': '33020', 'country': 'US', 'state': 'FL', 'display_address': ['Hollywood, FL 33020']}","{'latitude': 26.0193004608154, 'longitude': -80.1523742675781}",Miami
['Psychics'],Sunrise psychic,5.0,1,"{'address1': '109 E Sunrise Blvd', 'address2': None, 'address3': '', 'city': 'Fort Lauderdale', 'zip_code': '33304', 'country': 'US', 'state': 'FL', 'display_address': ['109 E Sunrise Blvd', 'Fort Lauderdale, FL 33304']}","{'latitude': 26.13704, 'longitude': -80.1429933}",Miami
"['Organic Stores', 'Food Delivery Services', 'Pick Your Own Farms']",Farm picked for you,5.0,1,"{'address1': '2220 N Commerce Pkwy', 'address2': 'Ste 221', 'address3': None, 'city': 'Weston', 'zip_code': '33326', 'country': 'US', 'state': 'FL', 'display_address': ['2220 N Commerce Pkwy', 'Ste 221', 'Weston, FL 33326']}","{'latitude': 26.0914002, 'longitude': -80.3677569}",Miami
['Psychics'],Spiritual Psychic Gabriella,5.0,1,"{'address1': None, 'address2': None, 'address3': None, 'city': 'Fort Lauderdale', 'zip_code': '33312', 'country': 'US', 'state': 'FL', 'display_address': ['Fort Lauderdale, FL 33312']}","{'latitude': 26.088302242313475, 'longitude': -80.18163654251468}",Miami
"['Psychics', 'Psychic Mediums', 'Gift Shops']",Psychic boutique ,5.0,1,"{'address1': '4348 N Federal Hwy', 'address2': None, 'address3': '', 'city': 'Fort Lauderdale', 'zip_code': '33308', 'country': 'US', 'state': 'FL', 'display_address': ['4348 N Federal Hwy', 'Fort Lauderdale, FL 33308']}","{'latitude': 26.181401992221428, 'longitude': -80.11909226881231}",Miami
"['Life Coach', 'Matchmakers', 'Psychic Mediums']",Psychic Medium Deborah Graham,5.0,1,"{'address1': '8379 Grand Prix Ln', 'address2': None, 'address3': None, 'city': 'Boynton Beach', 'zip_code': '33472', 'country': 'US', 'state': 'FL', 'display_address': ['8379 Grand Prix Ln', 'Boynton Beach, FL 33472']}","{'latitude': 26.350377955219404, 'longitude': -80.07467679174644}",Miami
['Psychics'],Psychic Answers,5.0,1,"{'address1': '2371 ne 12th terrace', 'address2': None, 'address3': '', 'city': 'Pompano beach', 'zip_code': '33064', 'country': 'US', 'state': 'FL', 'display_address': ['2371 ne 12th terrace', 'Pompano beach, FL 33064']}","{'latitude': 26.26038, 'longitude': -80.10635}",Miami
['Arts & Entertainment'],YoYoChamp Productions,5.0,1,"{'address1': '1756 North Bayshore Dr', 'address2': '', 'address3': None, 'city': 'Miami', 'zip_code': '33132', 'country': 'US', 'state': 'FL', 'display_address': ['1756 North Bayshore Dr', 'Miami, FL 33132']}","{'latitude': 25.79288, 'longitude': -80.18706}",Miami
"['Game Truck Rental', 'Virtual Reality Centers']",MyGames2Go,5.0,1,"{'address1': None, 'address2': None, 'address3': None, 'city': 'Miami', 'zip_code': '33197', 'country': 'US', 'state': 'FL', 'display_address': ['Miami, FL 33197']}","{'latitude': 25.4690426, 'longitude': -80.4216656}",Miami
"['Psychic Mediums', 'Astrologers', 'Psychics']",Native American Psychic,5.0,1,"{'address1': None, 'address2': None, 'address3': '', 'city': 'Boynton Beach', 'zip_code': '33426', 'country': 'US', 'state': 'FL', 'display_address': ['Boynton Beach, FL 33426']}","{'latitude': 26.53399923736032, 'longitude': -80.08296542044614}",Miami
"['Social Clubs', 'Specialty Schools', 'Private Tutors']",The Stormont Kings Chess Program,5.0,1,"{'address1': '8353 SW 124th St', 'address2': 'Ste 201-A', 'address3': '', 'city': 'Miami', 'zip_code': '33156', 'country': 'US', 'state': 'FL', 'display_address': ['8353 SW 124th St', 'Ste 201-A', 'Miami, FL 33156']}","{'latitude': 25.6556206, 'longitude': -80.3296432}",Miami
"['Psychics', 'Psychic Mediums', 'Life Coach']",Elaine Psychic,5.0,1,"{'address1': '3030 NE 21st Terrace', 'address2': 'Apt 5', 'address3': '', 'city': 'Fort Lauderdale', 'zip_code': '33306', 'country': 'US', 'state': 'FL', 'display_address': ['3030 NE 21st Terrace', 'Apt 5', 'Fort Lauderdale, FL 33306']}","{'latitude': 26.16645583291356, 'longitude': -80.1180607}",Miami
"['Life Coach', 'Supernatural Readings', 'Reiki']",Lila Lotus Transformational Coach,5.0,1,"{'address1': '', 'address2': None, 'address3': '', 'city': 'Fort Lauderdale', 'zip_code': '33315', 'country': 'US', 'state': 'FL', 'display_address': ['Fort Lauderdale, FL 33315']}","{'latitude': 26.10743, 'longitude': -80.15021}",Miami
"['Trainers', 'Stadiums & Arenas']",Gauchito Futsal,5.0,1,"{'address1': '9300 SW 152nd St', 'address2': None, 'address3': '', 'city': 'Miami', 'zip_code': '33157', 'country': 'US', 'state': 'FL', 'display_address': ['9300 SW 152nd St', 'Miami, FL 33157']}","{'latitude': 25.628371, 'longitude': -80.344157}",Miami
"['Magicians', 'Performing Arts']",Alan Chamo - Mentalist,5.0,1,"{'address1': '', 'address2': None, 'address3': '', 'city': 'North Miami Beach', 'zip_code': '33160', 'country': 'US', 'state': 'FL', 'display_address': ['North Miami Beach, FL 33160']}","{'latitude': 25.9417991638184, 'longitude': -80.1409378051758}",Miami
['Psychics'],The Sorcerer's Mansion - Divination By Tiffany,5.0,1,"{'address1': None, 'address2': None, 'address3': '', 'city': 'Homestead', 'zip_code': '33033', 'country': 'US', 'state': 'FL', 'display_address': ['Homestead, FL 33033']}","{'latitude': 25.49422, 'longitude': -80.44316}",Miami
"['Art Museums', 'Gift Shops']",Musart Boutique,5.0,1,"{'address1': '701 S Miami Ave', 'address2': None, 'address3': None, 'city': 'Miami', 'zip_code': '33130', 'country': 'US', 'state': 'FL', 'display_address': ['701 S Miami Ave', 'Miami, FL 33130']}","{'latitude': 25.7671673239502, 'longitude': -80.1930874586105}",Miami
['Psychics'],Psychic Gia - Spiritual Botanica Reader & Tarot Cards,5.0,1,"{'address1': '', 'address2': None, 'address3': '', 'city': 'Miami', 'zip_code': '33165', 'country': 'US', 'state': 'FL', 'display_address': ['Miami, FL 33165']}","{'latitude': 25.734324835869778, 'longitude': -80.35884335307178}",Miami
['Art Museums'],Buick Building,5.0,1,"{'address1': '3841 NE 2nd Ave', 'address2': '', 'address3': None, 'city': 'Miami', 'zip_code': '33137', 'country': 'US', 'state': 'FL', 'display_address': ['3841 NE 2nd Ave', 'Miami, FL 33137']}","{'latitude': 25.812647519695464, 'longitude': -80.19121862947941}",Miami
"['Art Galleries', 'Tattoo', 'Piercing']",Bonded by Ink,5.0,1,"{'address1': '111 S 21st Ave', 'address2': None, 'address3': '', 'city': 'Hollywood', 'zip_code': '33020', 'country': 'US', 'state': 'FL', 'display_address': ['111 S 21st Ave', 'Hollywood, FL 33020']}","{'latitude': 26.01092, 'longitude': -80.148695}",Miami
"['Session Photography', 'Museums']",Oakland Park Selfie Museum,5.0,1,"{'address1': '1101 NE 34th Ct', 'address2': None, 'address3': '', 'city': 'Oakland Park', 'zip_code': '33334', 'country': 'US', 'state': 'FL', 'display_address': ['1101 NE 34th Ct', 'Oakland Park, FL 33334']}","{'latitude': 26.170625569670477, 'longitude': -80.132204}",Miami
['Virtual Reality Centers'],360 Action,5.0,1,"{'address1': '2442 Ocean Ave', 'address2': 'Ste 5E', 'address3': None, 'city': 'Brooklyn', 'zip_code': '11229', 'country': 'US', 'state': 'NY', 'display_address': ['2442 Ocean Ave', 'Ste 5E', 'Brooklyn, NY 11229']}","{'latitude': 26.010645838839125, 'longitude': -80.3044226}",Miami
"['Performing Arts', 'Magicians']",Guy Bavli - Master of the Mind,5.0,1,"{'address1': None, 'address2': None, 'address3': '', 'city': 'Fort Lauderdale', 'zip_code': '33311', 'country': 'US', 'state': 'FL', 'display_address': ['Fort Lauderdale, FL 33311']}","{'latitude': 26.12941, 'longitude': -80.15879}",Miami
['Supernatural Readings'],Psychic Readings By Yardley,5.0,1,"{'address1': None, 'address2': None, 'address3': '', 'city': 'Pembroke Pines', 'zip_code': '33025', 'country': 'US', 'state': 'FL', 'display_address': ['Pembroke Pines, FL 33025']}","{'latitude': 26.0081100463867, 'longitude': -80.2801132202148}",Miami
['Psychics'],Pembroke Pines Psychic,5.0,1,"{'address1': '16222 SW 18th St', 'address2': '', 'address3': None, 'city': 'Miramar', 'zip_code': '33027', 'country': 'US', 'state': 'FL', 'display_address': ['16222 SW 18th St', 'Miramar, FL 33027']}","{'latitude': 25.99231897082904, 'longitude': -80.3630396}",Miami
"['Life Coach', 'Psychics']",Lifecouch,5.0,1,"{'address1': None, 'address2': None, 'address3': None, 'city': 'Hallandale Beach', 'zip_code': '33009', 'country': 'US', 'state': 'FL', 'display_address': ['Hallandale Beach, FL 33009']}","{'latitude': 25.9853096008301, 'longitude': -80.1488342285156}",Miami
['Psychics'],Psychic Readings And Tarot Card Readings,5.0,1,"{'address1': '48 NW 167th St', 'address2': 'Golden glades interchange', 'address3': '', 'city': 'Miami', 'zip_code': '33169', 'country': 'US', 'state': 'FL', 'display_address': ['48 NW 167th St', 'Golden glades interchange', 'Miami, FL 33169']}","{'latitude': 25.9278500300611, 'longitude': -80.2012428375241}",Miami
"['Party & Event Planning', 'Music Venues']",Los Pelaos de Broward,5.0,1,"{'address1': '4086 NW 88th Ave', 'address2': '', 'address3': '', 'city': 'Sunrise', 'zip_code': '33351', 'country': 'US', 'state': 'FL', 'display_address': ['4086 NW 88th Ave', 'Sunrise, FL 33351']}","{'latitude': 25.758844137210893, 'longitude': -80.33805202331375}",Miami
"['Performing Arts', 'Educational Services']",MoonAmie Productions,5.0,1,"{'address1': '7800 S Red Rd', 'address2': None, 'address3': '', 'city': 'Miami', 'zip_code': '33143', 'country': 'US', 'state': 'FL', 'display_address': ['7800 S Red Rd', 'Miami, FL 33143']}","{'latitude': 25.7044433, 'longitude': -80.2854554}",Miami
"['Tattoo', 'Art Galleries', 'Piercing']",Squirtin Ink,5.0,1,"{'address1': '10 NE 3rd St', 'address2': None, 'address3': '', 'city': 'Homestead', 'zip_code': '33034', 'country': 'US', 'state': 'FL', 'display_address': ['10 NE 3rd St', 'Homestead, FL 33034']}","{'latitude': 25.451123, 'longitude': -80.476218}",Miami
['Cinema'],AMC Pembroke Lake 9,4.0,138,"{'address1': '12085 Pines Blvd', 'address2': '', 'address3': None, 'city': 'Pembroke Pines', 'zip_code': '33026', 'country': 'US', 'state': 'FL', 'display_address': ['12085 Pines Blvd', 'Pembroke Pines, FL 33026']}","{'latitude': 26.0102848612921, 'longitude': -80.3077524965513}",Miami
"['Arcades', 'Laser Tag', 'Amusement Parks']",FunDimension,4.0,123,"{'address1': '2129 NW 1st Ct', 'address2': None, 'address3': '', 'city': 'Miami', 'zip_code': '33127', 'country': 'US', 'state': 'FL', 'display_address': ['2129 NW 1st Ct', 'Miami, FL 33127']}","{'latitude': 25.797342237801498, 'longitude': -80.19747233497009}",Miami
['Art Museums'],World Erotic Art Museum,4.0,220,"{'address1': '1205 Washington Ave', 'address2': '', 'address3': '', 'city': 'Miami Beach', 'zip_code': '33139', 'country': 'US', 'state': 'FL', 'display_address': ['1205 Washington Ave', 'Miami Beach, FL 33139']}","{'latitude': 25.78324, 'longitude': -80.13207}",Miami
"['Art Museums', 'Art Galleries']",Prez Art Museum Miami,4.0,407,"{'address1': '1103 Biscayne Blvd', 'address2': '', 'address3': '', 'city': 'Miami', 'zip_code': '33132', 'country': 'US', 'state': 'FL', 'display_address': ['1103 Biscayne Blvd', 'Miami, FL 33132']}","{'latitude': 25.7848705, 'longitude': -80.1890552}",Miami
"['Fruits & Veggies', 'Festivals', 'Farmers Market']",Family Farm,4.0,87,"{'address1': '14950 SW 14th St', 'address2': '', 'address3': None, 'city': 'Davie', 'zip_code': '33326', 'country': 'US', 'state': 'FL', 'display_address': ['14950 SW 14th St', 'Davie, FL 33326']}","{'latitude': 26.101095072192802, 'longitude': -80.34704275069252}",Miami
"['Lounges', 'Tapas/Small Plates', 'Music Venues']",Da Cave,4.0,38,"{'address1': '13641 NW 7th Ave', 'address2': None, 'address3': '', 'city': 'North Miami', 'zip_code': '33168', 'country': 'US', 'state': 'FL', 'display_address': ['13641 NW 7th Ave', 'North Miami, FL 33168']}","{'latitude': 25.899345, 'longitude': -80.2110224}",Miami
"['Festivals', 'Arts & Crafts', 'Performing Arts']",Dania Beach Arts & Seafood Celebration,4.0,19,"{'address1': '300 NE 2nd St', 'address2': '', 'address3': '', 'city': 'Dania Beach', 'zip_code': '33004', 'country': 'US', 'state': 'FL', 'display_address': ['300 NE 2nd St', 'Dania Beach, FL 33004']}","{'latitude': 26.0550746917725, 'longitude': -80.1397018432617}",Miami
"['Race Tracks', 'Venues & Event Spaces', 'Go Karts']",AMR Motorplex,4.0,9,"{'address1': '1 Speedway Blvd', 'address2': '', 'address3': None, 'city': 'Homestead', 'zip_code': '33035', 'country': 'US', 'state': 'FL', 'display_address': ['1 Speedway Blvd', 'Homestead, FL 33035']}","{'latitude': 25.453237, 'longitude': -80.419888}",Miami
['Cinema'],AMC Weston 8,4.0,106,"{'address1': '1338 Sw 160th Avenue', 'address2': '', 'address3': '', 'city': 'Sunrise', 'zip_code': '33326', 'country': 'US', 'state': 'FL', 'display_address': ['1338 Sw 160th Avenue', 'Sunrise, FL 33326']}","{'latitude': 26.1040022, 'longitude': -80.3623861}",Miami
"['Museums', 'Tours']",Coral Castle,4.0,290,"{'address1': '28655 S Dixie Hwy', 'address2': '', 'address3': '', 'city': 'Homestead', 'zip_code': '33033', 'country': 'US', 'state': 'FL', 'display_address': ['28655 S Dixie Hwy', 'Homestead, FL 33033']}","{'latitude': 25.50061597, 'longitude': -80.4443844}",Miami
"['Parks', 'Cultural Center']",The Women's Park,4.0,14,"{'address1': '10205 W Flagler St', 'address2': '', 'address3': '', 'city': 'Miami', 'zip_code': '33174', 'country': 'US', 'state': 'FL', 'display_address': ['10205 W Flagler St', 'Miami, FL 33174']}","{'latitude': 25.7690930750154, 'longitude': -80.3645074367523}",Miami
"['Art Galleries', 'Museums']",Cubaocho Museum & Performing Arts Center,4.0,147,"{'address1': '1465 SW 8th St', 'address2': 'Ste 106', 'address3': None, 'city': 'Miami', 'zip_code': '33135', 'country': 'US', 'state': 'FL', 'display_address': ['1465 SW 8th St', 'Ste 106', 'Miami, FL 33135']}","{'latitude': 25.7658507, 'longitude': -80.2190221}",Miami
"['LAN Centers', 'Venues & Event Spaces']",East Coast Gaming,4.5,3,"{'address1': '6842 Stirling Rd', 'address2': None, 'address3': '', 'city': 'Hollywood', 'zip_code': '33024', 'country': 'US', 'state': 'FL', 'display_address': ['6842 Stirling Rd', 'Hollywood, FL 33024']}","{'latitude': 26.0459606, 'longitude': -80.2258709}",Miami
['Art Galleries'],Jakmel Art Gallery,4.5,3,"{'address1': '154 NW 37th St', 'address2': '', 'address3': '', 'city': 'Miami', 'zip_code': '33127', 'country': 'US', 'state': 'FL', 'display_address': ['154 NW 37th St', 'Miami, FL 33127']}","{'latitude': 25.81093, 'longitude': -80.1987599}",Miami
['Art Galleries'],Aqua Art Miami,4.5,3,"{'address1': '1530 Collins Ave', 'address2': '', 'address3': '', 'city': 'Miami Beach', 'zip_code': '33139', 'country': 'US', 'state': 'FL', 'display_address': ['1530 Collins Ave', 'Miami Beach, FL 33139']}","{'latitude': 25.78827, 'longitude': -80.1308}",Miami
"['Spanish', 'Wine Bars', 'Music Venues']",Paco's Way - Miami,4.0,46,"{'address1': '45 Curtiss Pkwy', 'address2': '', 'address3': None, 'city': 'Miami Springs', 'zip_code': '33166', 'country': 'US', 'state': 'FL', 'display_address': ['45 Curtiss Pkwy', 'Miami Springs, FL 33166']}","{'latitude': 25.82153, 'longitude': -80.28092}",Miami
['Museums'],Museum Of Illusions - Miami,4.0,106,"{'address1': '536 Lincoln Rd', 'address2': None, 'address3': '', 'city': 'Miami Beach', 'zip_code': '33139', 'country': 'US', 'state': 'FL', 'display_address': ['536 Lincoln Rd', 'Miami Beach, FL 33139']}","{'latitude': 25.790575, 'longitude': -80.1340584}",Miami
"['Music Venues', 'Pop-Up Restaurants', 'Cocktail Bars']",The Wharf Miami,4.0,671,"{'address1': '114 SW North River Dr', 'address2': None, 'address3': None, 'city': 'Miami', 'zip_code': '33130', 'country': 'US', 'state': 'FL', 'display_address': ['114 SW North River Dr', 'Miami, FL 33130']}","{'latitude': 25.77264, 'longitude': -80.1998799}",Miami
['Cinema'],AMC Tamiami 18,4.0,206,"{'address1': '11865 Sw 26th St', 'address2': '', 'address3': '', 'city': 'Miami', 'zip_code': '33175', 'country': 'US', 'state': 'FL', 'display_address': ['11865 Sw 26th St', 'Miami, FL 33175']}","{'latitude': 25.747725, 'longitude': -80.389681}",Miami
"['Sports Bars', 'Music Venues']",Cagney's Saloon,4.0,26,"{'address1': '5981 S University Dr', 'address2': '', 'address3': '', 'city': 'Davie', 'zip_code': '33328', 'country': 'US', 'state': 'FL', 'display_address': ['5981 S University Dr', 'Davie, FL 33328']}","{'latitude': 26.045778, 'longitude': -80.25341}",Miami
"['Arts & Crafts', 'Art Galleries']",Greg Lane Fine Arts,4.0,4,"{'address1': '10457 SW 22nd Pl', 'address2': None, 'address3': None, 'city': 'Ft. Lauderdale', 'zip_code': '33324', 'country': 'US', 'state': 'FL', 'display_address': ['10457 SW 22nd Pl', 'Ft. Lauderdale, FL 33324']}","{'latitude': 26.092747, 'longitude': -80.287953}",Miami
['Psychics'],Psychic Guidance by Jennifer,4.5,2,"{'address1': None, 'address2': None, 'address3': None, 'city': 'Boca Raton', 'zip_code': '33432', 'country': 'US', 'state': 'FL', 'display_address': ['Boca Raton, FL 33432']}","{'latitude': 26.3440647125244, 'longitude': -80.0779037475586}",Miami
['Art Galleries'],Opera Gallery,4.5,2,"{'address1': '151 NE 41st St', 'address2': 'Ste 131', 'address3': None, 'city': 'Miami', 'zip_code': '33137', 'country': 'US', 'state': 'FL', 'display_address': ['151 NE 41st St', 'Ste 131', 'Miami, FL 33137']}","{'latitude': 25.81244906895963, 'longitude': -80.19153794879922}",Miami
['Festivals'],Basel House,4.0,4,"{'address1': '2308 NW 5th Ave', 'address2': '', 'address3': '', 'city': 'Miami', 'zip_code': '33127', 'country': 'US', 'state': 'FL', 'display_address': ['2308 NW 5th Ave', 'Miami, FL 33127']}","{'latitude': 25.7992793, 'longitude': -80.2034373}",Miami
['Art Galleries'],Wentworth gallery,4.5,2,"{'address1': '5804 Seminole Way', 'address2': 'Ste 103', 'address3': None, 'city': 'Hollywood', 'zip_code': '33314', 'country': 'US', 'state': 'FL', 'display_address': ['5804 Seminole Way', 'Ste 103', 'Hollywood, FL 33314']}","{'latitude': 26.051643848463915, 'longitude': -80.2105191}",Miami
['Supernatural Readings'],Psychic Reader,4.0,4,"{'address1': '219 N Federal Hwy', 'address2': '', 'address3': '', 'city': 'Dania Beach', 'zip_code': '33004', 'country': 'US', 'state': 'FL', 'display_address': ['219 N Federal Hwy', 'Dania Beach, FL 33004']}","{'latitude': 26.056532, 'longitude': -80.14407}",Miami
"['Psychics', 'Reiki']",Enchanted Psychic & Love Advisor,4.5,2,"{'address1': None, 'address2': None, 'address3': '', 'city': 'Miami', 'zip_code': '33131', 'country': 'US', 'state': 'FL', 'display_address': ['Miami, FL 33131']}","{'latitude': 25.76177904594699, 'longitude': -80.19174695481044}",Miami
['Art Galleries'],National Geographic Fine Art Galleries,4.5,2,"{'address1': '655 Lincoln Rd', 'address2': None, 'address3': '', 'city': 'Miami Beach', 'zip_code': '33139', 'country': 'US', 'state': 'FL', 'display_address': ['655 Lincoln Rd', 'Miami Beach, FL 33139']}","{'latitude': 25.791204, 'longitude': -80.135035}",Miami
"['Life Coach', 'Psychics']",Rose,4.0,4,"{'address1': '2227 Biscayne Blvd', 'address2': None, 'address3': None, 'city': 'Miami', 'zip_code': '33137', 'country': 'US', 'state': 'FL', 'display_address': ['2227 Biscayne Blvd', 'Miami, FL 33137']}","{'latitude': 25.798665, 'longitude': -80.188844}",Miami
"['Bars', 'Music Venues']",Bougainvillea's Old Florida Tavern,3.5,275,"{'address1': '7221 SW 58th Ave', 'address2': '', 'address3': '', 'city': 'South Miami', 'zip_code': '33143', 'country': 'US', 'state': 'FL', 'display_address': ['7221 SW 58th Ave', 'South Miami, FL 33143']}","{'latitude': 25.7038174, 'longitude': -80.2872051}",Miami
"['Cocktail Bars', 'Caribbean', 'Music Venues']",Sipsip Calypso Rum Bar,3.5,11,"{'address1': '3000 Florida Ave Miami', 'address2': None, 'address3': '', 'city': 'Miami', 'zip_code': '33133', 'country': 'US', 'state': 'FL', 'display_address': ['3000 Florida Ave Miami', 'Miami, FL 33133']}","{'latitude': 25.728547, 'longitude': -80.240933}",Miami
['Art Galleries'],Romero Britto Fine Art Gallery,3.5,48,"{'address1': '1102 Lincoln Rd', 'address2': '', 'address3': '', 'city': 'Miami Beach', 'zip_code': '33139', 'country': 'US', 'state': 'FL', 'display_address': ['1102 Lincoln Rd', 'Miami Beach, FL 33139']}","{'latitude': 25.7903875, 'longitude': -80.1411531}",Miami
['Cinema'],Regal Westfork,3.5,208,"{'address1': '15977 Pines Blvd On Dykes Rd', 'address2': '', 'address3': '', 'city': 'Pembroke Pines', 'zip_code': '33027', 'country': 'US', 'state': 'FL', 'display_address': ['15977 Pines Blvd On Dykes Rd', 'Pembroke Pines, FL 33027']}","{'latitude': 26.011599, 'longitude': -80.359488}",Miami
"[""Children's Museums""]",Miami Children's Museum,3.5,230,"{'address1': '980 MacArthur Cswy', 'address2': '', 'address3': '', 'city': 'Miami', 'zip_code': '33132', 'country': 'US', 'state': 'FL', 'display_address': ['980 MacArthur Cswy', 'Miami, FL 33132']}","{'latitude': 25.784619, 'longitude': -80.17659}",Miami
['Virtual Reality Centers'],Virtual Reality Park,3.5,16,"{'address1': '14401 NE 19th Ave', 'address2': None, 'address3': '', 'city': 'North Miami', 'zip_code': '33181', 'country': 'US', 'state': 'FL', 'display_address': ['14401 NE 19th Ave', 'North Miami, FL 33181']}","{'latitude': 25.908852, 'longitude': -80.159269}",Miami
['Wineries'],A Love Story,3.5,155,"{'address1': '8800 SW 56th St', 'address2': '', 'address3': None, 'city': 'Miami', 'zip_code': '33165', 'country': 'US', 'state': 'FL', 'display_address': ['8800 SW 56th St', 'Miami, FL 33165']}","{'latitude': 25.71611, 'longitude': -80.33779}",Miami
"['Casinos', 'Horse Racing']",Gulfstream Park,3.5,242,"{'address1': '901 S Federal Hwy', 'address2': '', 'address3': '', 'city': 'Hallandale Beach', 'zip_code': '33009', 'country': 'US', 'state': 'FL', 'display_address': ['901 S Federal Hwy', 'Hallandale Beach, FL 33009']}","{'latitude': 25.978120841204255, 'longitude': -80.139573370552}",Miami
"['Beer Gardens', 'Music Venues', 'Dance Clubs']",Brick,3.5,356,"{'address1': '187 NW 28th St', 'address2': None, 'address3': '', 'city': 'Miami', 'zip_code': '33127', 'country': 'US', 'state': 'FL', 'display_address': ['187 NW 28th St', 'Miami, FL 33127']}","{'latitude': 25.803138, 'longitude': -80.19888557}",Miami
"['Italian', 'Bars', 'Music Venues']",Paolo's 3's Company,3.5,84,"{'address1': '242 E Dania Beach Blvd', 'address2': '', 'address3': '', 'city': 'Dania', 'zip_code': '33004', 'country': 'US', 'state': 'FL', 'display_address': ['242 E Dania Beach Blvd', 'Dania, FL 33004']}","{'latitude': 26.05213, 'longitude': -80.14019}",Miami
"['American (Traditional)', 'Pubs', 'Music Venues']",Copper Blues Rock Pub & Kitchen,3.5,435,"{'address1': '3450 NW 83rd Ave', 'address2': 'Ste 224', 'address3': None, 'city': 'Doral', 'zip_code': '33122', 'country': 'US', 'state': 'FL', 'display_address': ['3450 NW 83rd Ave', 'Ste 224', 'Doral, FL 33122']}","{'latitude': 25.80698237917181, 'longitude': -80.33106923190431}",Miami
['Art Museums'],Superblue Miami,3.5,128,"{'address1': '1101 NW 23rd St', 'address2': '', 'address3': None, 'city': 'Miami', 'zip_code': '33127', 'country': 'US', 'state': 'FL', 'display_address': ['1101 NW 23rd St', 'Miami, FL 33127']}","{'latitude': 25.79923880600799, 'longitude': -80.21448172900871}",Miami
"['Bars', 'Seafood', 'Music Venues']",5 o'Clock Somewhere Bar & Grill,3.5,225,"{'address1': '1112 North Ocean Dr', 'address2': None, 'address3': 'Margaritaville Beach Resort', 'city': 'Hollywood', 'zip_code': '33019', 'country': 'US', 'state': 'FL', 'display_address': ['1112 North Ocean Dr', 'Margaritaville Beach Resort', 'Hollywood, FL 33019']}","{'latitude': 26.01927, 'longitude': -80.11728}",Miami
"['Venues & Event Spaces', 'Attraction Farms', 'Petting Zoos']",Pinto's Farm,3.5,142,"{'address1': '14890 SW 216th St', 'address2': None, 'address3': None, 'city': 'Miami', 'zip_code': '33170', 'country': 'US', 'state': 'FL', 'display_address': ['14890 SW 216th St', 'Miami, FL 33170']}","{'latitude': 25.56482, 'longitude': -80.43296}",Miami
['Art Galleries'],Artechouse Miami,3.5,103,"{'address1': '736 Collins Ave', 'address2': '', 'address3': None, 'city': 'Miami Beach', 'zip_code': '33139', 'country': 'US', 'state': 'FL', 'display_address': ['736 Collins Ave', 'Miami Beach, FL 33139']}","{'latitude': 25.777659, 'longitude': -80.132641}",Miami
"['American (New)', 'Sports Bars', 'Music Venues']",Oceans 13 Sports Bar & Grill,3.5,245,"{'address1': '3111 N Surf Rd', 'address2': '', 'address3': '', 'city': 'Hollywood', 'zip_code': '33019', 'country': 'US', 'state': 'FL', 'display_address': ['3111 N Surf Rd', 'Hollywood, FL 33019']}","{'latitude': 26.0303873, 'longitude': -80.1147911}",Miami
"['Bowling', 'Venues & Event Spaces', 'Arcades']",AMF Pembroke Pines Lanes,3.5,71,"{'address1': '1940 N University Dr', 'address2': '', 'address3': '', 'city': 'Pembroke Pines', 'zip_code': '33024', 'country': 'US', 'state': 'FL', 'display_address': ['1940 N University Dr', 'Pembroke Pines, FL 33024']}","{'latitude': 26.02594644, 'longitude': -80.24973396}",Miami
"['Cinema', 'Dinner Theater']",IPIC North Miami Beach,3.5,431,"{'address1': '3701 NE 163rd St', 'address2': '', 'address3': '', 'city': 'North Miami Beach', 'zip_code': '33160', 'country': 'US', 'state': 'FL', 'display_address': ['3701 NE 163rd St', 'North Miami Beach, FL 33160']}","{'latitude': 25.931530274567297, 'longitude': -80.13513337909164}",Miami
"['Landmarks & Historical Buildings', 'Race Tracks', 'Casinos']",Hialeah Park,3.5,30,"{'address1': '2200 E 4th Ave', 'address2': '', 'address3': '', 'city': 'Hialeah', 'zip_code': '33013', 'country': 'US', 'state': 'FL', 'display_address': ['2200 E 4th Ave', 'Hialeah, FL 33013']}","{'latitude': 25.841867967537734, 'longitude': -80.27410745540917}",Miami
"['Arcades', 'Virtual Reality Centers']",VR Playzone,4.0,4,"{'address1': '16701 Collins Ave', 'address2': None, 'address3': '', 'city': 'Sunny Isles Beach', 'zip_code': '33160', 'country': 'US', 'state': 'FL', 'display_address': ['16701 Collins Ave', 'Sunny Isles Beach, FL 33160']}","{'latitude': 25.930772, 'longitude': -80.121723}",Miami
['Art Galleries'],Harold Golen Gallery,3.5,14,"{'address1': '2294 NW 2nd Ave', 'address2': '', 'address3': '', 'city': 'Miami', 'zip_code': '33127', 'country': 'US', 'state': 'FL', 'display_address': ['2294 NW 2nd Ave', 'Miami, FL 33127']}","{'latitude': 25.7993792337691, 'longitude': -80.1991492509842}",Miami
['Country Clubs'],Miami Shores Country Club,3.5,63,"{'address1': '10000 Biscayne Blvd', 'address2': '', 'address3': '', 'city': 'Miami Shores', 'zip_code': '33138', 'country': 'US', 'state': 'FL', 'display_address': ['10000 Biscayne Blvd', 'Miami Shores, FL 33138']}","{'latitude': 25.869061, 'longitude': -80.17586}",Miami
"['Arcades', 'Cinema']",Flippers Cinema,3.5,94,"{'address1': '7001 Taft St', 'address2': '', 'address3': '', 'city': 'Hollywood', 'zip_code': '33024', 'country': 'US', 'state': 'FL', 'display_address': ['7001 Taft St', 'Hollywood, FL 33024']}","{'latitude': 26.025617450036155, 'longitude': -80.22793604966812}",Miami
['Cinema'],Regal Southland Mall,3.5,73,"{'address1': '20505 S Dixie Hwy', 'address2': 'Ste 1301', 'address3': '', 'city': 'Miami', 'zip_code': '33189', 'country': 'US', 'state': 'FL', 'display_address': ['20505 S Dixie Hwy', 'Ste 1301', 'Miami, FL 33189']}","{'latitude': 25.575111, 'longitude': -80.367744}",Miami
['Cinema'],The Landmark at Merrick Park,3.5,168,"{'address1': '358 San Lorenzo Ave', 'address2': 'Ste 3005', 'address3': None, 'city': 'Coral Gables', 'zip_code': '33146', 'country': 'US', 'state': 'FL', 'display_address': ['358 San Lorenzo Ave', 'Ste 3005', 'Coral Gables, FL 33146']}","{'latitude': 25.73152, 'longitude': -80.260668}",Miami
['Festivals'],The Miami Flea,3.5,35,"{'address1': '1445 N Miami Ave', 'address2': '', 'address3': '', 'city': 'Miami', 'zip_code': '33132', 'country': 'US', 'state': 'FL', 'display_address': ['1445 N Miami Ave', 'Miami, FL 33132']}","{'latitude': 25.7889899, 'longitude': -80.1944}",Miami
"['Food Court', 'Music Venues']",The Oasis,3.5,115,"{'address1': '2335 N Miami Ave', 'address2': '', 'address3': None, 'city': 'Miami', 'zip_code': '33127', 'country': 'US', 'state': 'FL', 'display_address': ['2335 N Miami Ave', 'Miami, FL 33127']}","{'latitude': 25.799549, 'longitude': -80.194662}",Miami
['Festivals'],Wynwood Art Fair,3.5,5,"{'address1': '167 NW 25th St', 'address2': '', 'address3': 'Wywood Arts District', 'city': 'Miami', 'zip_code': '33127', 'country': 'US', 'state': 'FL', 'display_address': ['167 NW 25th St', 'Wywood Arts District', 'Miami, FL 33127']}","{'latitude': 25.800968, 'longitude': -80.19828}",Miami
"['Music Venues', 'Pop-Up Restaurants', 'Cocktail Bars']",Wynwood Marketplace,3.5,85,"{'address1': '2250 NW 2nd Ave', 'address2': '', 'address3': None, 'city': 'Miami', 'zip_code': '33127', 'country': 'US', 'state': 'FL', 'display_address': ['2250 NW 2nd Ave', 'Miami, FL 33127']}","{'latitude': 25.8014217, 'longitude': -80.199445}",Miami
"['Museums', 'Planetarium', 'Aquariums']",Phillip and Patricia Frost Museum of Science,3.5,596,"{'address1': '1101 Biscayne Blvd', 'address2': None, 'address3': '', 'city': 'Miami', 'zip_code': '33132', 'country': 'US', 'state': 'FL', 'display_address': ['1101 Biscayne Blvd', 'Miami, FL 33132']}","{'latitude': 25.785434, 'longitude': -80.187794}",Miami
"['Bowling', 'Hookah Bars', 'Arcades']",Strike 10 Bowling,3.5,223,"{'address1': '801 Silks Run', 'address2': 'Ste 1505', 'address3': '', 'city': 'Hallandale Beach', 'zip_code': '33009', 'country': 'US', 'state': 'FL', 'display_address': ['801 Silks Run', 'Ste 1505', 'Hallandale Beach, FL 33009']}","{'latitude': 25.9774988, 'longitude': -80.14028}",Miami
['Cinema'],Silverspot Cinema,3.5,240,"{'address1': '300 SE 3rd St', 'address2': 'Ste 100', 'address3': '', 'city': 'Miami', 'zip_code': '33131', 'country': 'US', 'state': 'FL', 'display_address': ['300 SE 3rd St', 'Ste 100', 'Miami, FL 33131']}","{'latitude': 25.771450060760998, 'longitude': -80.18854557320516}",Miami
['Performing Arts'],Haunted Circus Carnival,3.5,14,"{'address1': '7900 SW 40th St', 'address2': '', 'address3': None, 'city': 'Miami', 'zip_code': '33155', 'country': 'US', 'state': 'FL', 'display_address': ['7900 SW 40th St', 'Miami, FL 33155']}","{'latitude': 25.7300061, 'longitude': -80.3237043}",Miami
['Cinema'],Regal South Beach,3.5,321,"{'address1': '1120 Lincoln Road Mall', 'address2': '', 'address3': '', 'city': 'Miami Beach', 'zip_code': '33139', 'country': 'US', 'state': 'FL', 'display_address': ['1120 Lincoln Road Mall', 'Miami Beach, FL 33139']}","{'latitude': 25.79029625041, 'longitude': -80.1409537}",Miami
"['Pizza', 'Arcades', 'Kids Activities']",Chuck E. Cheese,3.5,55,"{'address1': '8701 SW 124th Ave', 'address2': '', 'address3': '', 'city': 'Miami', 'zip_code': '33183', 'country': 'US', 'state': 'FL', 'display_address': ['8701 SW 124th Ave', 'Miami, FL 33183']}","{'latitude': 25.6877062, 'longitude': -80.3924367}",Miami
"['Bowling', 'Venues & Event Spaces', 'Eatertainment']",Bowlero Davie,3.5,109,"{'address1': '8200 W State Rd 84', 'address2': '', 'address3': None, 'city': 'Davie', 'zip_code': '33324', 'country': 'US', 'state': 'FL', 'display_address': ['8200 W State Rd 84', 'Davie, FL 33324']}","{'latitude': 26.09963003, 'longitude': -80.25716464}",Miami
['Country Clubs'],Cooper Colony Country Club,3.5,9,"{'address1': '5050 SW 90th Ave', 'address2': '', 'address3': '', 'city': 'Cooper City', 'zip_code': '33328', 'country': 'US', 'state': 'FL', 'display_address': ['5050 SW 90th Ave', 'Cooper City, FL 33328']}","{'latitude': 26.058978, 'longitude': -80.270319}",Miami
['Botanical Gardens'],Ichimura Miami Japanese Garden,3.5,16,"{'address1': '1101 MacArthur Cswy', 'address2': '', 'address3': '', 'city': 'Miami', 'zip_code': '33139', 'country': 'US', 'state': 'FL', 'display_address': ['1101 MacArthur Cswy', 'Miami, FL 33139']}","{'latitude': 25.783611, 'longitude': -80.173361}",Miami
"['Trampoline Parks', 'Virtual Reality Centers', 'Arcades']",Dezerland Action Park Miami,3.5,131,"{'address1': '14401 NE 19th Ave', 'address2': '', 'address3': '', 'city': 'North Miami', 'zip_code': '33181', 'country': 'US', 'state': 'FL', 'display_address': ['14401 NE 19th Ave', 'North Miami, FL 33181']}","{'latitude': 25.9082994, 'longitude': -80.1616098}",Miami
['Festivals'],OUTshine Film Festival,4.0,2,"{'address1': '6360 NE 4th Ct', 'address2': '', 'address3': None, 'city': 'Miami', 'zip_code': '33138', 'country': 'US', 'state': 'FL', 'display_address': ['6360 NE 4th Ct', 'Miami, FL 33138']}","{'latitude': 25.83459, 'longitude': -80.1878}",Miami
['Art Galleries'],Lulu Laboratorium,3.5,8,"{'address1': '173 NW 23rd St', 'address2': '', 'address3': '', 'city': 'Miami', 'zip_code': '33127', 'country': 'US', 'state': 'FL', 'display_address': ['173 NW 23rd St', 'Miami, FL 33127']}","{'latitude': 25.7992439, 'longitude': -80.1987305}",Miami
['Festivals'],Wynwood Life,3.0,9,"{'address1': '2250 NW 2nd Ave', 'address2': '', 'address3': '', 'city': 'Miami', 'zip_code': '33127', 'country': 'US', 'state': 'FL', 'display_address': ['2250 NW 2nd Ave', 'Miami, FL 33127']}","{'latitude': 25.7986177, 'longitude': -80.1994059}",Miami
['Cinema'],Regal Dania Pointe,3.0,92,"{'address1': '128 Sunset Dr', 'address2': '', 'address3': None, 'city': 'Dania Beach', 'zip_code': '33004', 'country': 'US', 'state': 'FL', 'display_address': ['128 Sunset Dr', 'Dania Beach, FL 33004']}","{'latitude': 26.0524109379389, 'longitude': -80.1609294190498}",Miami
"['Music Venues', 'Lounges', 'Cocktail Bars']",thedeck,3.0,40,"{'address1': '2250 NW 2nd Ave', 'address2': None, 'address3': None, 'city': 'Miami', 'zip_code': '33127', 'country': 'US', 'state': 'FL', 'display_address': ['2250 NW 2nd Ave', 'Miami, FL 33127']}","{'latitude': 25.8014217, 'longitude': -80.199445}",Miami
"['Arcades', 'Sports Bars', 'Venues & Event Spaces']",GameTime,3.0,185,"{'address1': '5701 Sunset Dr', 'address2': '', 'address3': 'Sunset Place Mall', 'city': 'Miami', 'zip_code': '33143', 'country': 'US', 'state': 'FL', 'display_address': ['5701 Sunset Dr', 'Sunset Place Mall', 'Miami, FL 33143']}","{'latitude': 25.7056262747045, 'longitude': -80.2860783334351}",Miami
"['Community Service/Non-Profit', 'Animal Shelters', 'Ranches']",F.R.I.E.N.D.S. Horse Rescue & Sanctuary,3.5,3,"{'address1': '19801 Sheridan St', 'address2': '', 'address3': '', 'city': 'Southwest Ranches', 'zip_code': '33332', 'country': 'US', 'state': 'FL', 'display_address': ['19801 Sheridan St', 'Southwest Ranches, FL 33332']}","{'latitude': 26.0317012, 'longitude': -80.4155338}",Miami
"['Italian', 'Festivals', 'Specialty Food']",San Gennaro Feast,3.5,3,"{'address1': '901 S Federal Hwy', 'address2': '', 'address3': None, 'city': 'Hallandale Beach', 'zip_code': '33009', 'country': 'US', 'state': 'FL', 'display_address': ['901 S Federal Hwy', 'Hallandale Beach, FL 33009']}","{'latitude': 26.00391415304719, 'longitude': -80.14254769173587}",Miami
"[""Children's Museums""]",Miami Children's Museum Early Childhood Institute,3.5,3,"{'address1': '980 MacArthur Cswy', 'address2': None, 'address3': '', 'city': 'Miami', 'zip_code': '33132', 'country': 'US', 'state': 'FL', 'display_address': ['980 MacArthur Cswy', 'Miami, FL 33132']}","{'latitude': 25.7847403020628, 'longitude': -80.1765032327044}",Miami
"['Psychics', 'Psychic Mediums']",Islamorada Psychic,3.5,3,"{'address1': '81167 Overseas Hwy', 'address2': None, 'address3': '', 'city': 'Islamorada', 'zip_code': '33036', 'country': 'US', 'state': 'FL', 'display_address': ['81167 Overseas Hwy', 'Islamorada, FL 33036']}","{'latitude': 24.91106, 'longitude': -80.64283}",Miami
"['Spiritual Shop', 'Psychics']",Spiritual Psychic Botanica,3.0,12,"{'address1': '1910 Hollywood Blvd', 'address2': None, 'address3': '', 'city': 'Hollywood', 'zip_code': '33020', 'country': 'US', 'state': 'FL', 'display_address': ['1910 Hollywood Blvd', 'Hollywood, FL 33020']}","{'latitude': 26.01114, 'longitude': -80.14549}",Miami
['Music Venues'],Seminole Hard Rock Hotel & Casino,3.0,126,"{'address1': '1 Seminole Way', 'address2': '', 'address3': '', 'city': 'Hollywood', 'zip_code': '33314', 'country': 'US', 'state': 'FL', 'display_address': ['1 Seminole Way', 'Hollywood, FL 33314']}","{'latitude': 26.050816702427436, 'longitude': -80.21154820000001}",Miami
"['Venues & Event Spaces', 'Resorts', 'Country Clubs']",JW Marriott Miami Turnberry Resort & Spa,3.0,276,"{'address1': '19999 West Country Club Drive', 'address2': '', 'address3': '', 'city': 'Aventura', 'zip_code': '33180', 'country': 'US', 'state': 'FL', 'display_address': ['19999 West Country Club Drive', 'Aventura, FL 33180']}","{'latitude': 25.960177, 'longitude': -80.137729}",Miami
['Country Clubs'],Miccosukee Golf & Country Club,3.0,45,"{'address1': '6401 Kendale Lakes Dr', 'address2': '', 'address3': '', 'city': 'Miami', 'zip_code': '33183', 'country': 'US', 'state': 'FL', 'display_address': ['6401 Kendale Lakes Dr', 'Miami, FL 33183']}","{'latitude': 25.7073889965701, 'longitude': -80.4277592241859}",Miami
"['Seafood', 'Cocktail Bars', 'Music Venues']",Monty's Sunset - South Beach,3.0,795,"{'address1': '300 Alton Rd', 'address2': '', 'address3': '', 'city': 'Miami Beach', 'zip_code': '33139', 'country': 'US', 'state': 'FL', 'display_address': ['300 Alton Rd', 'Miami Beach, FL 33139']}","{'latitude': 25.7715294057856, 'longitude': -80.1395683}",Miami
"['Bowling', 'Venues & Event Spaces', 'Eatertainment']",Bowlero Doral,3.0,125,"{'address1': '11401 NW 12th St', 'address2': None, 'address3': None, 'city': 'Miami', 'zip_code': '33172', 'country': 'US', 'state': 'FL', 'display_address': ['11401 NW 12th St', 'Miami, FL 33172']}","{'latitude': 25.788214, 'longitude': -80.38011}",Miami
"['Festivals', 'Interior Design']",Palm Beach Home Design and Remodeling Show,3.0,11,"{'address1': 'Palm Beach County Convention Ctr', 'address2': '650 Okeechobee Blvd', 'address3': '', 'city': 'West Palm Beach', 'zip_code': '33401', 'country': 'US', 'state': 'FL', 'display_address': ['Palm Beach County Convention Ctr', '650 Okeechobee Blvd', 'West Palm Beach, FL 33401']}","{'latitude': 25.7982207, 'longitude': -80.2019551}",Miami
['Cinema'],AMC Sunset Place 24,3.0,304,"{'address1': '5701 Sunset Drive', 'address2': '', 'address3': '', 'city': 'South Miami', 'zip_code': '33143', 'country': 'US', 'state': 'FL', 'display_address': ['5701 Sunset Drive', 'South Miami, FL 33143']}","{'latitude': 25.70584, 'longitude': -80.286541}",Miami
['Casinos'],Seminole Hard Rock Hotel & Casino,3.0,55,"{'address1': '1 Seminole Way', 'address2': '', 'address3': None, 'city': 'Hollywood', 'zip_code': '33026', 'country': 'US', 'state': 'FL', 'display_address': ['1 Seminole Way', 'Hollywood, FL 33026']}","{'latitude': 26.050832937708194, 'longitude': -80.2115482}",Miami
"['Cinema', 'American (New)', 'Bars']",Cinpolis Luxury Cinemas,3.0,255,"{'address1': '3015 Grand Ave', 'address2': '', 'address3': '', 'city': 'Coconut Grove', 'zip_code': '33133', 'country': 'US', 'state': 'FL', 'display_address': ['3015 Grand Ave', 'Coconut Grove, FL 33133']}","{'latitude': 25.7287006, 'longitude': -80.2419815}",Miami
['Psychics'],Aventura Psychic,4.0,1,"{'address1': '17101 N Bay Rd', 'address2': None, 'address3': '', 'city': 'Miami fl', 'zip_code': '33160', 'country': 'US', 'state': 'FL', 'display_address': ['17101 N Bay Rd', 'Miami fl, FL 33160']}","{'latitude': 25.9338294, 'longitude': -80.1263681}",Miami
"['Psychic Mediums', 'Psychics', 'Life Coach']",Psychic Love Insight,4.0,1,"{'address1': '601 N Federal Hwy', 'address2': 'Ste 254', 'address3': '', 'city': 'Pompano Beach', 'zip_code': '33062', 'country': 'US', 'state': 'FL', 'display_address': ['601 N Federal Hwy', 'Ste 254', 'Pompano Beach, FL 33062']}","{'latitude': 26.2374, 'longitude': -80.10332}",Miami
['Art Galleries'],Lumas,4.0,1,"{'address1': '737 Lincoln Rd', 'address2': '', 'address3': None, 'city': 'Miami Beach', 'zip_code': '33139', 'country': 'US', 'state': 'FL', 'display_address': ['737 Lincoln Rd', 'Miami Beach, FL 33139']}","{'latitude': 25.790952877545543, 'longitude': -80.1362359}",Miami
['Festivals'],Hollywood Greek Festival,4.0,1,"{'address1': '425 N 58th Ave', 'address2': '', 'address3': None, 'city': 'Hollywood', 'zip_code': '33021', 'country': 'US', 'state': 'FL', 'display_address': ['425 N 58th Ave', 'Hollywood, FL 33021']}","{'latitude': 26.0133311862622, 'longitude': -80.2034810185432}",Miami
"['Arcades', 'Virtual Reality Centers']",Arcade Zone,4.0,1,"{'address1': '11401 Pines Blvd', 'address2': '# 634', 'address3': '', 'city': 'Pembroke Pine', 'zip_code': '33026', 'country': 'US', 'state': 'FL', 'display_address': ['11401 Pines Blvd', '# 634', 'Pembroke Pine, FL 33026']}","{'latitude': 26.01057833, 'longitude': -80.30447617}",Miami
"['Walking Tours', 'Arts & Entertainment', 'Art Tours']",Wynwood Mural Tours,4.0,1,"{'address1': '24th & NW 2nd Ave', 'address2': '', 'address3': 'Wynwood', 'city': 'Miami', 'zip_code': '33127', 'country': 'US', 'state': 'FL', 'display_address': ['24th & NW 2nd Ave', 'Wynwood', 'Miami, FL 33127']}","{'latitude': 25.8000948046372, 'longitude': -80.1990533469798}",Miami
['Art Galleries'],San Paul Gallery,4.0,1,"{'address1': '2527 NW 2nd Ave', 'address2': '', 'address3': '', 'city': 'Miami', 'zip_code': '33127', 'country': 'US', 'state': 'FL', 'display_address': ['2527 NW 2nd Ave', 'Miami, FL 33127']}","{'latitude': 25.8042441, 'longitude': -80.1989186}",Miami
"['Pizza', 'Arcades', 'Indoor Playcentre']",Chuck E. Cheese's,3.0,9,"{'address1': '18575 S Dixie Hwy', 'address2': '', 'address3': '', 'city': 'Miami', 'zip_code': '33157', 'country': 'US', 'state': 'FL', 'display_address': ['18575 S Dixie Hwy', 'Miami, FL 33157']}","{'latitude': 25.8899346, 'longitude': -80.1877011}",Miami
"['Pizza', 'Kids Activities', 'Arcades']",Chuck E. Cheese,3.0,15,"{'address1': '18575 S Dixie Hwy', 'address2': '', 'address3': None, 'city': 'Miami', 'zip_code': '33157', 'country': 'US', 'state': 'FL', 'display_address': ['18575 S Dixie Hwy', 'Miami, FL 33157']}","{'latitude': 25.5963847031, 'longitude': -80.3548692539334}",Miami
['Cinema'],Regal Kendall Village,3.0,237,"{'address1': '8595 SW 124th Ave', 'address2': '', 'address3': '', 'city': 'Miami', 'zip_code': '33183', 'country': 'US', 'state': 'FL', 'display_address': ['8595 SW 124th Ave', 'Miami, FL 33183']}","{'latitude': 25.688342829283798, 'longitude': -80.39288}",Miami
"['Bowling', 'Eatertainment', 'Venues & Event Spaces']",Bowlero Dania Beach,3.0,97,"{'address1': '1841 Way Pointe Pl', 'address2': '', 'address3': None, 'city': 'Dania Beach', 'zip_code': '33004', 'country': 'US', 'state': 'FL', 'display_address': ['1841 Way Pointe Pl', 'Dania Beach, FL 33004']}","{'latitude': 26.05513737, 'longitude': -80.15995364}",Miami
['Cinema'],Regal Oakwood,3.0,184,"{'address1': '2800 Oakwood Blvd', 'address2': '', 'address3': '', 'city': 'Hollywood', 'zip_code': '33020', 'country': 'US', 'state': 'FL', 'display_address': ['2800 Oakwood Blvd', 'Hollywood, FL 33020']}","{'latitude': 26.036615, 'longitude': -80.162542}",Miami
"['Casinos', 'Comedy Clubs', 'Diners']",The Casino @ Dania Beach,3.0,185,"{'address1': '301 E Dania Beach Blvd', 'address2': '', 'address3': '', 'city': 'Dania Beach', 'zip_code': '33004', 'country': 'US', 'state': 'FL', 'display_address': ['301 E Dania Beach Blvd', 'Dania Beach, FL 33004']}","{'latitude': 26.053399, 'longitude': -80.13707}",Miami
"['Golf', 'Country Clubs', 'Golf Lessons']",Davie Golf Club,3.0,24,"{'address1': '8201 Nova Dr', 'address2': '', 'address3': '', 'city': 'Davie', 'zip_code': '33324', 'country': 'US', 'state': 'FL', 'display_address': ['8201 Nova Dr', 'Davie, FL 33324']}","{'latitude': 26.0905990600586, 'longitude': -80.2568511962891}",Miami
"['Pizza', 'Arcades', 'Kids Activities']",Chuck E. Cheese,3.0,47,"{'address1': '8515 Pines Blvd', 'address2': '', 'address3': '', 'city': 'Pembroke Pines', 'zip_code': '33024', 'country': 'US', 'state': 'FL', 'display_address': ['8515 Pines Blvd', 'Pembroke Pines, FL 33024']}","{'latitude': 26.0091544, 'longitude': -80.2565481}",Miami
"['Pizza', 'Arcades', 'Kids Activities']",Chuck E. Cheese,3.0,39,"{'address1': '3805 W 20th Ave Bay', 'address2': '', 'address3': '', 'city': 'Hialeah', 'zip_code': '33012', 'country': 'US', 'state': 'FL', 'display_address': ['3805 W 20th Ave Bay', 'Hialeah, FL 33012']}","{'latitude': 25.8563126726154, 'longitude': -80.321148}",Miami
['Art Museums'],Beyond Van Gogh,3.0,19,"{'address1': '1400 N Miami Ave', 'address2': '', 'address3': None, 'city': 'Miami', 'zip_code': '33136', 'country': 'US', 'state': 'FL', 'display_address': ['1400 N Miami Ave', 'Miami, FL 33136']}","{'latitude': 25.78861276049119, 'longitude': -80.19476102334468}",Miami
"['Arcades', 'Bowling', 'Karaoke']",Round1 Pembroke Pines,3.0,95,"{'address1': '12055 Pines Blvd', 'address2': '', 'address3': None, 'city': 'Pembroke Pines', 'zip_code': '33026', 'country': 'US', 'state': 'FL', 'display_address': ['12055 Pines Blvd', 'Pembroke Pines, FL 33026']}","{'latitude': 26.01042920987305, 'longitude': -80.30706790786533}",Miami
"['Golf', 'Country Clubs', 'Venues & Event Spaces']",The Club at Weston Hills,3.0,19,"{'address1': '2600 Country Club Way', 'address2': '', 'address3': '', 'city': 'Weston', 'zip_code': '33332', 'country': 'US', 'state': 'FL', 'display_address': ['2600 Country Club Way', 'Weston, FL 33332']}","{'latitude': 26.092729, 'longitude': -80.393948}",Miami
['Casinos'],Calder Casino,3.0,74,"{'address1': '21001 NW 27th Ave', 'address2': '', 'address3': '', 'city': 'Miami Gardens', 'zip_code': '33056', 'country': 'US', 'state': 'FL', 'display_address': ['21001 NW 27th Ave', 'Miami Gardens, FL 33056']}","{'latitude': 25.9680186854506, 'longitude': -80.2404713630676}",Miami
"['Cinema', 'American (Traditional)', 'Bars']",CMX Cinemas Brickell,3.0,409,"{'address1': '701 S Miami Ave', 'address2': '', 'address3': None, 'city': 'Miami', 'zip_code': '33130', 'country': 'US', 'state': 'FL', 'display_address': ['701 S Miami Ave', 'Miami, FL 33130']}","{'latitude': 25.767765292997677, 'longitude': -80.1930251411044}",Miami
['Art Galleries'],Goldman Global Arts Gallery,3.5,3,"{'address1': '266 NW 26th St', 'address2': '', 'address3': 'Inside the Wynwood Walls', 'city': 'Miami', 'zip_code': '33127', 'country': 'US', 'state': 'FL', 'display_address': ['266 NW 26th St', 'Inside the Wynwood Walls', 'Miami, FL 33127']}","{'latitude': 25.80122, 'longitude': -80.20049}",Miami
['Casinos'],Magic City Casino,3.0,145,"{'address1': '450 NW 37th Ave', 'address2': '', 'address3': '', 'city': 'Miami', 'zip_code': '33125', 'country': 'US', 'state': 'FL', 'display_address': ['450 NW 37th Ave', 'Miami, FL 33125']}","{'latitude': 25.77677176786964, 'longitude': -80.25691946132405}",Miami
"['Arcades', 'Go Karts', 'Skating Rinks']",Dezerland Action Park Miami,3.0,74,"{'address1': '14401 NE 19th Ave', 'address2': None, 'address3': '', 'city': 'North Miami Beach', 'zip_code': '33181', 'country': 'US', 'state': 'FL', 'display_address': ['14401 NE 19th Ave', 'North Miami Beach, FL 33181']}","{'latitude': 25.908864, 'longitude': -80.159269}",Miami
['Psychics'],Psychic Readings By Rose,3.0,14,"{'address1': '5827 Johnson St', 'address2': '', 'address3': '', 'city': 'Hollywood', 'zip_code': '33021', 'country': 'US', 'state': 'FL', 'display_address': ['5827 Johnson St', 'Hollywood, FL 33021']}","{'latitude': 26.0178768713094, 'longitude': -80.2050691061402}",Miami
"['Stadiums & Arenas', 'Music Venues', 'Ticket Sales']",White Glove International,3.5,2,"{'address1': '350 Biscayne Blvd', 'address2': None, 'address3': '', 'city': 'Miami', 'zip_code': '33132', 'country': 'US', 'state': 'FL', 'display_address': ['350 Biscayne Blvd', 'Miami, FL 33132']}","{'latitude': 25.77735632658, 'longitude': -80.1884385198355}",Miami
"['American (Traditional)', 'Arcades', 'Bars']",Dave & Buster's - Miami,2.5,360,"{'address1': '11481 NW 12th St', 'address2': '', 'address3': '', 'city': 'Miami', 'zip_code': '33172', 'country': 'US', 'state': 'FL', 'display_address': ['11481 NW 12th St', 'Miami, FL 33172']}","{'latitude': 25.786518100424, 'longitude': -80.3811749785736}",Miami
"['Pizza', 'Arcades', 'Kids Activities']",Chuck E. Cheese,2.5,44,"{'address1': '20335 Biscayne Blvd', 'address2': 'Ste L-1', 'address3': '', 'city': 'Miami', 'zip_code': '33180', 'country': 'US', 'state': 'FL', 'display_address': ['20335 Biscayne Blvd', 'Ste L-1', 'Miami, FL 33180']}","{'latitude': 25.96407367, 'longitude': -80.14421267}",Miami
['Casinos'],Seminole Classic Casino,2.5,55,"{'address1': '4150 N State Rd 7', 'address2': '', 'address3': '', 'city': 'Hollywood', 'zip_code': '33021', 'country': 'US', 'state': 'FL', 'display_address': ['4150 N State Rd 7', 'Hollywood, FL 33021']}","{'latitude': 26.044123, 'longitude': -80.209344}",Miami
['Country Clubs'],Country Club of Miami,2.5,22,"{'address1': '6801 NW 186th St', 'address2': None, 'address3': None, 'city': 'Hialeah', 'zip_code': '33015', 'country': 'US', 'state': 'FL', 'display_address': ['6801 NW 186th St', 'Hialeah, FL 33015']}","{'latitude': 25.942131, 'longitude': -80.3135914}",Miami
"['Skating Rinks', 'Venues & Event Spaces', 'Arcades']",Super Wheels,2.5,146,"{'address1': '12265 SW 112th St', 'address2': None, 'address3': '', 'city': 'Miami', 'zip_code': '33186', 'country': 'US', 'state': 'FL', 'display_address': ['12265 SW 112th St', 'Miami, FL 33186']}","{'latitude': 25.6622148, 'longitude': -80.3945678}",Miami
"['Tattoo', 'Piercing', 'Art Galleries']",Live Tattoo,2.5,17,"{'address1': '6735 Coral Way', 'address2': '', 'address3': '', 'city': 'Miami', 'zip_code': '33155', 'country': 'US', 'state': 'FL', 'display_address': ['6735 Coral Way', 'Miami, FL 33155']}","{'latitude': 25.7485957208054, 'longitude': -80.3045143839799}",Miami
"['Casinos', 'Bars']",Casino Miami,2.5,69,"{'address1': '3500 NW 37th Ave', 'address2': '', 'address3': '', 'city': 'Miami', 'zip_code': '33142', 'country': 'US', 'state': 'FL', 'display_address': ['3500 NW 37th Ave', 'Miami, FL 33142']}","{'latitude': 25.8073357, 'longitude': -80.2568107}",Miami
"['Bars', 'Arcades', 'American (Traditional)']",Dave & Buster's Hollywood,2.5,548,"{'address1': '3000 Oakwood Blvd', 'address2': '', 'address3': '', 'city': 'Hollywood', 'zip_code': '33020', 'country': 'US', 'state': 'FL', 'display_address': ['3000 Oakwood Blvd', 'Hollywood, FL 33020']}","{'latitude': 26.04018072363192, 'longitude': -80.16221145928438}",Miami
